Fuel Type Code,Station Name,Street Address,Intersection Directions,City,State,ZIP,Plus4,Station Phone,Status Code,Expected Date,Groups With Access Code,Access Days Time,Cards Accepted,BD Blends,NG Fill Type Code,NG PSI,EV Level1 EVSE Num,EV Level2 EVSE Num,EV DC Fast Count,EV Other Info,EV Network,EV Network Web,Geocode Status,Latitude,Longitude,Date Last Confirmed,ID,Updated At,Owner Type Code,Federal Agency ID,Federal Agency Name,Open Date,Hydrogen Status Link,NG Vehicle Class,LPG Primary,E85 Blender Pump,EV Connector Types,Country,Intersection Directions (French),Access Days Time (French),BD Blends (French),Groups With Access Code (French),Hydrogen Is Retail,Access Code,Access Detail Code,Federal Agency Code,Facility Type,CNG Dispenser Num,CNG On-Site Renewable Source,CNG Total Compression Capacity,CNG Storage Capacity,LNG On-Site Renewable Source,E85 Other Ethanol Blends,EV Pricing,EV Pricing (French),LPG Nozzle Types,Hydrogen Pressures,Hydrogen Standards,CNG Fill Type Code,CNG PSI,CNG Vehicle Class,LNG Vehicle Class,EV On-Site Renewable Source,Restricted Access
BD,Dr. Dan's Alternative Fuels Werks,912 NW 50th St,"For more information, visit https://drdansbiodiesel.com.",Seattle,WA,98107,,206-783-5728,E,,Public,24 hours daily,A Cash Checks D M V,B99,,,,,,,,,200-9,47.66525,-122.369311,6/14/2022,21113,2022-06-14 16:22:30 UTC,P,,,5/15/2001,,,,,,US,,,,Public,,public,,,CONVENIENCE_STORE,,,,,,,,,,,,,,,,,FALSE
BD,Pictured Rocks National Lakeshore - South,E 9758 County Highway 958,,Munising,MI,49862,,,E,,Private - Government only,,,B20,,,,,,,,,GPS,46.42113,-86.610718,7/12/2022,21767,2022-07-12 20:31:42 UTC,FG,16,Department of the Interior,12/15/2002,,,,,,US,,,,Privé - Réservé au gouvernement,,private,GOVERNMENT,DOI,NATL_PARK,,,,,,,,,,,,,,,,,
BD,Currituck County - North Carolina DOT,NC-1246,"On Prison Camp Road, 1 mile north of Highway 158",Maple,NC,27956,,,E,,Private - Government only,,,B20,,,,,,,,,GPS,36.400683,-76.019153,4/6/2022,21779,2022-04-06 14:08:04 UTC,SG,,,1/15/2003,,,,,,US,,,,Privé - Réservé au gouvernement,,private,GOVERNMENT,,STATE_GOV,,,,,,,,,,,,,,,,,
BD,Person County - North Carolina DOT,517 Leasburg Rd,"North of US 157 and NC 49, west of Roxboro",Roxboro,NC,27574,,,E,,Private - Government only,,,B20,,,,,,,,,200-8,36.39162,-78.996949,4/6/2022,21780,2022-04-06 14:08:04 UTC,SG,,,1/15/2003,,,,,,US,,,,Privé - Réservé au gouvernement,,private,GOVERNMENT,,STATE_GOV,,,,,,,,,,,,,,,,,
BD,Durham County - North Carolina DOT,3910 Guess Rd,"Prison Camp Road off State Route 1003, 2 miles N of I-85",Durham,NC,27705,,,E,,Private - Government only,,,B20,,,,,,,,,200-8,36.06297,-78.930276,4/6/2022,21781,2022-04-06 14:08:04 UTC,SG,,,1/15/2003,,,,,,US,,,,Privé - Réservé au gouvernement,,private,GOVERNMENT,,STATE_GOV,,,,,,,,,,,,,,,,,
BD,Granville County - North Carolina DOT,5677 Cornwall Rd,,Oxford,NC,27565,,,E,,Private - Government only,,,B20,,,,,,,,,200-8,36.329714,-78.631536,4/6/2022,21782,2022-04-06 14:08:04 UTC,SG,,,1/15/2003,,,,,,US,,,,Privé - Réservé au gouvernement,,private,GOVERNMENT,,STATE_GOV,,,,,,,,,,,,,,,,,
BD,Franklin County - North Carolina DOT,NC 39 Highway S,"1 mile south of Bunn, next to Prison Camp",Bunn,NC,27508,,,E,,Private - Government only,,,B20,,,,,,,,,GPS,35.942469,-78.250178,4/6/2022,21783,2022-04-06 14:08:04 UTC,SG,,,1/15/2003,,,,,,US,,,,Privé - Réservé au gouvernement,,private,GOVERNMENT,,STATE_GOV,,,,,,,,,,,,,,,,,
BD,Vance County - North Carolina DOT,465 Gillburg Rd,"On State Route 1519 just off NC 39, 4 miles south of Henderson",Henderson,NC,27537,,,E,,Private - Government only,,,B20,,,,,,,,,200-8,36.269917,-78.369648,4/6/2022,21784,2022-04-06 14:08:04 UTC,SG,,,1/15/2003,,,,,,US,,,,Privé - Réservé au gouvernement,,private,GOVERNMENT,,STATE_GOV,,,,,,,,,,,,,,,,,
BD,Warren County - North Carolina DOT,State Route 1001,0.5 mile west of Warrenton,Warrenton,NC,27589,,,E,,Private - Government only,,,B20,,,,,,,,,GPS,36.395211,-78.173533,4/6/2022,21785,2022-04-06 14:08:04 UTC,SG,,,1/15/2003,,,,,,US,,,,Privé - Réservé au gouvernement,,private,GOVERNMENT,,STATE_GOV,,,,,,,,,,,,,,,,,
BD,Wake County Method Shop - North Carolina DOT,1301 Blue Ridge Rd,Corner of Trinity Road and Blue Ridge Road,Raleigh,NC,27607,,,E,,Private - Government only,,,B20,,,,,,,,,200-9,35.799735,-78.708496,4/6/2022,21854,2022-04-06 14:08:04 UTC,SG,,,2/15/2003,,,,,,US,,,,Privé - Réservé au gouvernement,,private,GOVERNMENT,,STATE_GOV,,,,,,,,,,,,,,,,,
BD,Guilford County - North Carolina DOT,Sandy Camp Rd,"Exit 208 off I-40 W, left at exit, after 3 miles turn left",High Point,NC,27265,,,E,,Private - Government only,,,B20,,,,,,,,,GPS,36.069003,-80.001533,4/6/2022,21855,2022-04-06 14:08:04 UTC,SG,,,2/15/2003,,,,,,US,,,,Privé - Réservé au gouvernement,,private,GOVERNMENT,,STATE_GOV,,,,,,,,,,,,,,,,,
BD,Cabarrus County - North Carolina DOT,State Route 2604,On Dutch Road 0.25 mile north of Mount Pleasant,Mt. Pleasant,NC,28124,,,E,,Private - Government only,,,B20,,,,,,,,,GPS,35.399172,-80.41315,4/6/2022,21856,2022-04-06 14:08:04 UTC,SG,,,2/15/2003,,,,,,US,,,,Privé - Réservé au gouvernement,,private,GOVERNMENT,,STATE_GOV,,,,,,,,,,,,,,,,,
BD,Gaston County - North Carolina DOT,1301 Dallas Cherryville Hwy,1 mile west of Dallas off NC 275,Dallas,NC,28034,,,E,,Private - Government only,,,B20,,,,,,,,,200-8,35.31546,-81.1965,4/6/2022,21857,2022-04-06 14:08:04 UTC,SG,,,2/15/2003,,,,,,US,,,,Privé - Réservé au gouvernement,,private,GOVERNMENT,,STATE_GOV,,,,,,,,,,,,,,,,,
BD,Lincoln County - North Carolina DOT,499 Prison Camp Rd,"Off NC 27/150, behind Lowe's Home Improvement. 2 miles east of Lincolnton.",Lincolnton,NC,28092,,,E,,Private - Government only,,,B20,,,,,,,,,GPS,35.484206,-81.2362,4/6/2022,21858,2022-04-06 14:08:04 UTC,SG,,,2/15/2003,,,,,,US,,,,Privé - Réservé au gouvernement,,private,GOVERNMENT,,STATE_GOV,,,,,,,,,,,,,,,,,
BD,Alexander County - North Carolina DOT,2370 Highway 90 E,2 miles east of Taylorsville,Taylorsville,NC,28681,,,E,,Private - Government only,,,B20,,,,,,,,,200-9,35.91343,-81.136799,4/6/2022,21859,2022-04-06 14:08:04 UTC,SG,,,2/15/2003,,,,,,US,,,,Privé - Réservé au gouvernement,,private,GOVERNMENT,,STATE_GOV,,,,,,,,,,,,,,,,,
BD,Catawba County - North Carolina DOT,1302 Prison Camp Rd,"At intersection of US 321 and State Route 1883, 3.5 miles south of Newton",Newton,NC,28658,,,E,,Private - Government only,,,B20,,,,,,,,,200-8,35.616929,-81.208893,4/6/2022,21860,2022-04-06 14:08:04 UTC,SG,,,2/15/2003,,,,,,US,,,,Privé - Réservé au gouvernement,,private,GOVERNMENT,,STATE_GOV,,,,,,,,,,,,,,,,,
BD,Forsyth County - North Carolina DOT,399 Craft Dr,"State Route 1725, 2 miles from downtown. Cherry St Exit, north on Cherry St, right onto Craft Dr, facility on right",Winston-Salem,NC,27105,,,E,,Private - Government only,,,B20,,,,,,,,,GPS,36.1438541,-80.2642881,4/6/2022,21861,2022-04-06 14:08:04 UTC,SG,,,2/15/2003,,,,,,US,,,,Privé - Réservé au gouvernement,,private,GOVERNMENT,,STATE_GOV,,,,,,,,,,,,,,,,,
BD,Union County - North Carolina DOT,US-74,,Monroe,NC,28112,,,E,,Private - Government only,,,B20,,,,,,,,,GPS,34.981981,-80.523778,4/6/2022,21862,2022-04-06 14:08:04 UTC,SG,,,2/15/2003,,,,,,US,,,,Privé - Réservé au gouvernement,,private,GOVERNMENT,,STATE_GOV,,,,,,,,,,,,,,,,,
BD,Mecklenburg County - North Carolina DOT,6820 Rozzelles Ferry Rd,,Charlotte,NC,28214,,,E,,Private - Government only,,,B20,,,,,,,,,200-9,35.284025,-80.921187,4/6/2022,21863,2022-04-06 14:08:04 UTC,SG,,,2/15/2003,,,,,,US,,,,Privé - Réservé au gouvernement,,private,GOVERNMENT,,STATE_GOV,,,,,,,,,,,,,,,,,
BD,Cleveland County - North Carolina DOT,254 Kemper Rd,"Off US 74 BUS, 3 miles east of Shelby",Shelby,NC,28152,,,E,,Private - Government only,,,B20,,,,,,,,,200-8,35.283409,-81.484649,4/6/2022,21864,2022-04-06 14:08:04 UTC,SG,,,2/15/2003,,,,,,US,,,,Privé - Réservé au gouvernement,,private,GOVERNMENT,,STATE_GOV,,,,,,,,,,,,,,,,,
BD,Iredell County - North Carolina DOT,124 Prison Camp Rd,"At intersection of US 21 and State Route 2233, 4.5 miles north of Statesville",Statesville,NC,28625,,,E,,Private - Government only,,,B20,,,,,,,,,200-9,35.85536,-80.848301,4/6/2022,21865,2022-04-06 14:08:04 UTC,SG,,,2/15/2003,,,,,,US,,,,Privé - Réservé au gouvernement,,private,GOVERNMENT,,STATE_GOV,,,,,,,,,,,,,,,,,
BD,University of Michigan,1213 Kipke Dr,At Stadium,Ann Arbor,MI,48109,,,E,,Private,,,"B20 in summer, B5 in winter",,,,,,,,,GPS,42.266439,-83.745825,6/14/2022,21877,2022-06-14 16:22:30 UTC,SG,,,1/1/1995,,,,,,US,,,,Privé,,private,,,COLLEGE_CAMPUS,,,,,,,,,,,,,,,,,
BD,University of Michigan,3256 Baxter Rd,Near Baxter and Huron Parkway,Ann Arbor,MI,48109,,,T,7/1/2022,TEMPORARILY UNAVAILABLE (Private),,,"B20 in summer, B5 in winter",,,,,,,,,200-8,42.297773,-83.693761,6/14/2022,21878,2022-06-14 16:22:30 UTC,SG,,,1/1/1995,,,,,,US,,,,TEMPORAIREMENT SUSPENDU (Privé),,private,,,COLLEGE_CAMPUS,,,,,,,,,,,,,,,,,
BD,City of Keene,330 Marlboro Rd,"0.5 mile north of 101, Optical Avenue to Marlboro Street, left to Bartholomew Court on right",Keene,NH,3431,,,E,,Private - Government only,24 hours daily,,B20,,,,,,,,,200-8,42.920524,-72.260489,9/14/2022,21886,2022-09-14 15:49:44 UTC,LG,,,6/15/2002,,,,,,US,,,,Privé - Réservé au gouvernement,,private,GOVERNMENT,,MUNI_GOV,,,,,,,,,,,,,,,,,
BD,Pearson Fuels Depot,4067 El Cajon Blvd,Corner of 15 Freeway and El Cajon Boulevard,San Diego,CA,92105,,619-243-0456  888-998-2546,E,,Public - Credit card after hours,"6am-10pm M-F, 7am-10pm Sat-Sun",A Cash CFN D M V Voyager Wright_Exp,B20,,,,,,,,,200-9,32.754335,-117.107501,8/10/2022,22615,2022-08-10 13:32:10 UTC,P,,,8/15/2003,,,,,,US,,,,Public - Carte de crédit après les heures d'ouverture,,public,CREDIT_CARD_AFTER_HOURS,,CONVENIENCE_STORE,,,,,,,,,,,,,,,,,FALSE
BD,Shoco Oil,5135 E 74th Ave,,Commerce City,CO,80022,,303-289-1677,E,,Public - Credit card after hours,"6am-6pm M-F, 7am-12pm Sat",Cash M V,"B99, B20",,,,,,,,,200-9,39.832768,-104.927427,1/10/2022,23766,2022-10-12 20:38:04 UTC,P,,,11/15/2003,,,,,,US,,,,Public - Carte de crédit après les heures d'ouverture,,public,CREDIT_CARD_AFTER_HOURS,,STANDALONE_STATION,,,,,,,,,,,,,,,,,FALSE
BD,Island Supply - Mead Biofuel,21 W Beach Rd,Orcas Island,Eastsound,WA,98245,,360-376-4200,T,12/7/2022,TEMPORARILY UNAVAILABLE (Public - Call ahead),"7:30am-5:30pm M-F, 8:30am-5:30pm Sat",Cash D M V,B99,,,,,,,,,200-9,48.677753,-122.939944,6/14/2022,25140,2022-06-14 16:22:30 UTC,P,,,4/21/2004,,,,,,US,,,,TEMPORAIREMENT SUSPENDU (Public - Appeler à l'avance),,public,CALL,,HARDWARE_STORE,,,,,,,,,,,,,,,,,TRUE
BD,Travis Air Force Base,611 Collins Dr,,Fairfield,CA,94535,,,E,,Private - Government only,Also accepts paying arrangement made with station manager,Wright_Exp,B20,,,,,,,,,200-8,38.278146,-121.930245,7/12/2022,25374,2022-07-12 20:31:42 UTC,FG,5,Department of Air Force,8/15/2003,,,,,,US,,,,Privé - Réservé au gouvernement,,private,GOVERNMENT,DAF,MIL_BASE,,,,,,,,,,,,,,,,,
BD,Peterson Air Force Base,1143 Otis St,,Colorado Springs,CO,80914,,,E,,Private - Government only,Also accepts paying arrangement made with station manager,Wright_Exp,B20,,,,,,,,,GPS,38.828151,-104.707111,7/12/2022,25475,2022-07-12 20:31:42 UTC,FG,5,Department of Air Force,6/15/2004,,,,,,US,,,,Privé - Réservé au gouvernement,,private,GOVERNMENT,DAF,MIL_BASE,,,,,,,,,,,,,,,,,
BD,Jay's Garage,734 SE 7th Ave,7th and Morrison,Portland,OR,97214,,503-239-5167,E,,Public,"7am-7pm M-F, 8am-6pm Sat-Sun",A Cash Checks D M V Voyager Wright_Exp,"B99 in summer, B50 in winter",,,,,,,,,200-9,45.51746,-122.658364,5/5/2022,25565,2022-05-05 20:22:04 UTC,P,,,2/15/2006,,,,,,US,,,,Public,,public,,,GAS_STATION,,,,,,,,,,,,,,,,,FALSE
BD,Mecklenburg County - North Carolina DOT,12033-A E Independence Blvd,Near I-485,Matthews,NC,28105,,,E,,Private - Government only,,,B20,,,,,,,,,200-8,35.108761,-80.686978,4/6/2022,25594,2022-04-06 14:08:04 UTC,SG,,,7/15/2004,,,,,,US,,,,Privé - Réservé au gouvernement,,private,GOVERNMENT,,STATE_GOV,,,,,,,,,,,,,,,,,
BD,Dal Soglio Sinclair,7398 S 700 W,"I-15 exit at 7200 S, west to first stop light then left (south) two blocks to Sinclair station on right side of road",Midvale,UT,84047,,801-255-9221,E,,Public - Credit card after hours,"5am-7pm M-Sat; B100 available only during store hours in summer, B20 available at all times with credit card",A Cash D M V Wright_Exp,"B100 in summer, no BD in the winter",,,,,,,,,200-9,40.616504,-111.911608,5/5/2022,25789,2022-05-05 20:22:04 UTC,P,,,2/15/2020,,,,,,US,,,,Public - Carte de crédit après les heures d'ouverture,,public,CREDIT_CARD_AFTER_HOURS,,CONVENIENCE_STORE,,,,,,,,,,,,,,,,,FALSE
BD,Western States Petroleum,450 S 15th Ave,"1.5 blocks south on 15th Avenue from Jefferson Street, between the railroad tracks",Phoenix,AZ,85007,,602-252-4011,E,,Public - Credit card after hours,6am-4pm M-F,A Cash D M V,"B99, B20",,,,,,,,,200-9,33.443116,-112.092402,8/10/2022,25902,2022-08-10 13:32:10 UTC,P,,,1/15/2003,,,,,,US,,,,Public - Carte de crédit après les heures d'ouverture,,public,CREDIT_CARD_AFTER_HOURS,,FUEL_RESELLER,,,,,,,,,,,,,,,,,FALSE
BD,Glenn Research Center,5577 Taylor Rd,,Cleveland,OH,44135,,,E,,Private - Government only,Also accessible through chip keys,Proprietor Wright_Exp,B20,,,,,,,,,200-8,41.412789,-81.864656,7/12/2022,26646,2022-07-12 20:31:42 UTC,FG,22,National Aeronautics and Space Administration,3/15/2005,,,,,,US,,,,Privé - Réservé au gouvernement,,private,GOVERNMENT,NASA,RESEARCH_FACILITY,,,,,,,,,,,,,,,,,
BD,South Carolina Department of Transportation - Aiken,1931 University Pkwy,,Aiken,SC,29801,,,E,,Private - Government only,6am-10pm daily,Wright_Exp,"B20, B5",,,,,,,,,200-8,33.583131,-81.726645,9/14/2022,27141,2022-09-14 15:49:44 UTC,SG,,,6/15/2005,,,,,,US,,,,Privé - Réservé au gouvernement,,private,GOVERNMENT,,STATE_GOV,,,,,,,,,,,,,,,,,
BD,South Carolina Department of Transportation - Orangeburg,1768 Charleston Hwy,,Orangeburg,SC,29115,,,E,,Private - Government only,,Wright_Exp,"B20, B5",,,,,,,,,GPS,33.470536,-80.846694,9/14/2022,27145,2022-09-14 15:49:44 UTC,SG,,,6/15/2005,,,,,,US,,,,Privé - Réservé au gouvernement,,private,GOVERNMENT,,STATE_GOV,,,,,,,,,,,,,,,,,
BD,South Carolina Department of Transportation - Newberry,203 Mount Bethel Garmany Rd,,Newberry,SC,29108,,,E,,Private - Government only,6am-10pm daily,Wright_Exp,"B20, B5",,,,,,,,,200-8,34.290536,-81.596313,9/14/2022,27149,2022-09-14 15:49:44 UTC,SG,,,6/15/2005,,,,,,US,,,,Privé - Réservé au gouvernement,,private,GOVERNMENT,,STATE_GOV,,,,,,,,,,,,,,,,,
BD,South Carolina Department of Transportation - St. George,5225 E Jim Bilton Blvd,,St. George,SC,29477,,,E,,Private - Government only,6am-10pm daily,Wright_Exp,"B20, B5",,,,,,,,,GPS,33.1800752,-80.5583486,9/14/2022,27153,2022-09-14 15:49:44 UTC,SG,,,6/15/2005,,,,,,US,,,,Privé - Réservé au gouvernement,,private,GOVERNMENT,,STATE_GOV,,,,,,,,,,,,,,,,,
BD,South Carolina Department of Transportation - Richland,7201 Fairfield Rd,,Columbia,SC,29203,,,E,,Private - Government only,,Wright_Exp,"B20, B5",,,,,,,,,200-9,34.083095,-81.026683,9/14/2022,27156,2022-09-14 15:49:44 UTC,SG,,,6/15/2005,,,,,,US,,,,Privé - Réservé au gouvernement,,private,GOVERNMENT,,STATE_GOV,,,,,,,,,,,,,,,,,
BD,South Carolina Department of Transportation - Equipment Depot,1424 Shop Rd,,Columbia,SC,29208,,,E,,Private - Government only,,Wright_Exp,"B20, B5",,,,,,,,,200-8,33.971149,-81.007933,9/14/2022,27157,2022-09-14 15:49:44 UTC,SG,,,6/15/2005,,,,,,US,,,,Privé - Réservé au gouvernement,,private,GOVERNMENT,,STATE_GOV,,,,,,,,,,,,,,,,,
BD,Santee Cooper Transportation Services,1 Riverwood Dr,,Moncks Corner,SC,29461,,,E,,Private,,,B20,,,,,,,,,200-9,33.199811,-79.977701,1/14/2021,27159,2021-12-30 21:30:07 UTC,P,,,2/15/2002,,,,,,US,,,,Privé,,private,,,UTILITY,,,,,,,,,,,,,,,,,
BD,BioFuel Oasis,1441 Ashby Ave,,Berkeley,CA,94702,,510-665-5509,E,,Public,"11am-7pm M-Sat, 12pm-4pm Sun; extended hours when using the Fueling Freedom card; visit biofueloasis.com for details; Also accepts Fueling Freedom card",Checks M V,B20,,,,,,,,,200-9,37.853452,-122.279305,7/12/2022,27289,2022-07-12 20:31:42 UTC,P,,,7/15/2005,,,,,,US,,,,Public,,public,,,CONVENIENCE_STORE,,,,,,,,,,,,,,,,,FALSE
BD,Luckey Farmers Inc,3940 Fremont Pk,,Perrysburg,OH,43551,,419-849-2711,E,,Public - Credit card at all times,24 hours daily; Also accepts LFI fuel cards,A D M V,B20,,,,,,,,,200-9,41.495757,-83.471574,5/5/2022,27814,2022-05-05 20:22:04 UTC,P,,,1/15/2006,,,,,,US,,,,Public - Carte de crédit en tout temps,,public,CREDIT_CARD_ALWAYS,,STANDALONE_STATION,,,,,,,,,,,,,,,,,FALSE
BD,SeQuential Biofuels,86714 McVay Hwy,At Bloomberg Road,Eugene,OR,97405,,541-736-5864,E,,Public,"6am-9pm M-F, 7am-9pm Sat-Sun",A Cash D M V,"B99, B20, B5",,,,,,,,,200-9,44.018404,-123.026223,4/6/2022,27820,2022-04-06 14:08:04 UTC,P,,,9/15/2006,,,,,,US,,,,Public,,public,,,CONVENIENCE_STORE,,,,,,,,,,,,,,,,,FALSE
BD,"NY State Office of Parks, Recreation and Historic Preservation - Planting Fields Arboretum",Planting Fields Rd,,Oyster Bay,NY,11771,,,E,,Private - Government only,,,B20,,,,,,,,,GPS,40.860392,-73.552931,10/12/2021,28252,2022-02-25 20:48:59 UTC,SG,,,11/15/2005,,,,,,US,,,,Privé - Réservé au gouvernement,,private,GOVERNMENT,,STATE_GOV,,,,,,,,,,,,,,,,,
BD,Star Oilco - SeQuential Biofuels,232 Middlefield Rd,"Exit I-5 on Marine Drive E, right on to Vancouver Street, left on to Middlefield Road. Pump is in the parking lot in front of the Star Oilco office.",Portland,OR,97211,,503-283-1256,E,,Public,8am-4:30pm M-F,Cash Checks,B99,,,,,,,,,200-9,45.59544,-122.663432,5/5/2022,28761,2022-05-05 20:22:04 UTC,P,,,6/15/2004,,,,,,US,,,,Public,,public,,,STANDALONE_STATION,,,,,,,,,,,,,,,,,FALSE
BD,Revolution CNG - JB Dewar Inc,75 Prado Rd,"Exit Highway 101 N at Prado Road, and the station is on the right. Exit Highway 101 S at Madonna Road, right on Madonna, right on Higuera St, right on Prado, and station is on the left",San Luis Obispo,CA,93401,,805-238-0624,E,,Public - Card key at all times,"24 hours daily; public must apply for access and proprietary card, and must be part of CA biodiesel users group to purchase B99 - contact station for arrangements",,B20,,,,,,,,,200-9,35.254197,-120.670939,1/10/2022,29481,2022-06-30 17:09:27 UTC,P,,,3/15/2006,,,,,,US,,,,Public - Carte-clé en tout temps,,public,KEY_ALWAYS,,STANDALONE_STATION,,,,,,,,,,,,,,,,,FALSE
BD,John Ray & Sons,2900 6th Ave,Corner of 6th and Middleburgh,Troy,NY,12180,,518-272-4432,E,,Public - Credit card after hours,"7am-5pm M-F, 8am-12pm Sat",A Cash D M V,"B20 in summer, B5 in winter",,,,,,,,,200-9,42.745934,-73.681895,1/10/2022,29571,2022-03-08 23:24:24 UTC,P,,,3/15/2007,,,,,,US,,,,Public - Carte de crédit après les heures d'ouverture,,public,CREDIT_CARD_AFTER_HOURS,,STANDALONE_STATION,,,,,,,,,,,,,,,,,FALSE
BD,University of South Florida,13327 USF Plum Dr,,Tampa,FL,33620,,,E,,Private,,,B20,,,,,,,,,200-8,28.066556,-82.417169,1/10/2022,30008,2022-11-07 16:36:50 UTC,SG,,,8/15/2006,,,,,,US,,,,Privé,,private,,,COLLEGE_CAMPUS,,,,,,,,,,,,,,,,,
BD,Joint Base Anacostia Bolling,365 Thomas Rd,,Washington,DC,20373,,,E,,Private - Government only,Also accepts DOD fleet card,Wright_Exp,B20,,,,,,,,,GPS,38.8556,-77.008583,7/12/2022,30303,2022-07-12 20:31:42 UTC,FG,14,Department of Navy,9/15/2006,,,,,,US,,,,Privé - Réservé au gouvernement,,private,GOVERNMENT,DON,MIL_BASE,,,,,,,,,,,,,,,,,
BD,Robins Air Force Base,640 2nd St,,Macon,GA,31098,,,E,,Private - Government only,Also accepts paying arrangement made with station manager,Wright_Exp,B20,,,,,,,,,GPS,32.619389,-83.602222,7/12/2022,30305,2022-07-12 20:31:42 UTC,FG,5,Department of Air Force,9/15/2006,,,,,,US,,,,Privé - Réservé au gouvernement,,private,GOVERNMENT,DAF,MIL_BASE,,,,,,,,,,,,,,,,,
BD,National Institutes of Health,9000 Rockville Pike,,Bethesda,MD,20892,,,E,,Private - Government only,,,B20,,,,,,,,,200-9,39.005124,-77.099118,7/12/2022,30321,2022-07-12 20:31:42 UTC,FG,9,Department of Health and Human Services,9/15/2006,,,,,,US,,,,Privé - Réservé au gouvernement,,private,GOVERNMENT,HHS,FED_GOV,,,,,,,,,,,,,,,,,
BD,Nellis Air Force Base,6197 Depot Rd,,Las Vegas,NV,89191,,,E,,Private - Government only,Also accepts paying arrangement made with station manager,Wright_Exp,B20,,,,,,,,,200-8,36.246512,-115.038003,7/12/2022,30325,2022-07-12 20:31:42 UTC,FG,5,Department of Air Force,9/15/2006,,,,,,US,,,,Privé - Réservé au gouvernement,,private,GOVERNMENT,DAF,MIL_BASE,,,,,,,,,,,,,,,,,
BD,Davis Monthan Air Force Base,4655 S Flightline Rd,,Tucson,AZ,85707,,,E,,Private - Government only,Also accepts paying arrangement made with station manager,Wright_Exp,B20,,,,,,,,,200-6,32.173292,-110.881398,7/12/2022,30337,2022-07-12 20:31:42 UTC,FG,5,Department of Air Force,9/15/2006,,,,,,US,,,,Privé - Réservé au gouvernement,,private,GOVERNMENT,DAF,MIL_BASE,,,,,,,,,,,,,,,,,
BD,Laughlin Air Force Base,54 Arkansas St,,Laughlin AFB,TX,78843,,,E,,Private - Government only,Also accepts paying arrangement made with station manager,Wright_Exp,B20,,,,,,,,,GPS,29.358927,-100.800868,7/12/2022,30346,2022-07-12 20:31:42 UTC,FG,5,Department of Air Force,9/15/2006,,,,,,US,,,,Privé - Réservé au gouvernement,,private,GOVERNMENT,DAF,MIL_BASE,,,,,,,,,,,,,,,,,
BD,McChord Air Force Base,930 Tacoma Ave S,,Tacoma,WA,98438,,,E,,Private - Government only,Also accepts paying arrangement made with station manager,Wright_Exp,B20,,,,,,,,,GPS,47.253205,-122.445212,7/12/2022,30353,2022-07-12 20:31:42 UTC,FG,5,Department of Air Force,9/15/2006,,,,,,US,,,,Privé - Réservé au gouvernement,,private,GOVERNMENT,DAF,MIL_BASE,,,,,,,,,,,,,,,,,
BD,Carl's Junior 76 Station,2140 N Nimitz Hwy,,Honolulu,HI,96819,,808-848-0480,E,,Public,"5:30am-10pm M-W, 6am-11pm Th-Sat, 6am-10pm Sun",A Cash D M V,B99,,,,,,,,,200-9,21.32815,-157.885852,8/10/2022,30606,2022-08-10 13:32:10 UTC,P,,,10/15/2006,,,,,,US,,,,Public,,public,,,CONVENIENCE_STORE,,,,,,,,,,,,,,,,,FALSE
BD,Leathers - Portland,18145 SE Division,Division and 181st,Portland,OR,97236,,503-666-8198,E,,Public,"6am-10pm M-Sat, 7am-9pm Sun",A Cash D M V,B20,,,,,,,,,200-9,45.504952,-122.476183,5/5/2022,30666,2022-05-05 20:22:04 UTC,P,,,11/15/2006,,,,,,US,,,,Public,,public,,,CONVENIENCE_STORE,,,,,,,,,,,,,,,,,FALSE
BD,Bretthauer Oil - Pacific Pride,2125 NE Cumulus Ave,At McMinnville Bypass and 3-Miles Lane,McMinnville,OR,97128,,503-648-2531,E,,Public - Card key at all times,24 hours daily; contact station to arrange for card key,PacificPride,B20,,,,,,,,,200-9,45.201395,-123.176432,4/6/2022,30669,2022-04-06 14:08:04 UTC,P,,,11/15/2006,,,,,,US,,,,Public - Carte-clé en tout temps,,public,KEY_ALWAYS,,STANDALONE_STATION,,,,,,,,,,,,,,,,,FALSE
BD,Snohomish Co-op,168 Lincoln Ave,At 2nd Street.,Snohomish,WA,98290,,360-568-2104,T,7/13/2022,TEMPORARILY UNAVAILABLE (Public - Credit card after hours),"7am-6:30pm M-F, 8am-6pm Sat, 10am-5pm Sun",A Cash D M V,"B99 in summer, B70 in winter",,,,,,,,,200-9,47.91202,-122.0877,6/14/2022,31225,2022-06-14 16:22:30 UTC,P,,,1/15/2007,,,,,,US,,,,TEMPORAIREMENT SUSPENDU (Public - Carte de crédit après les heures d'ouverture),,public,CREDIT_CARD_AFTER_HOURS,,COOP,,,,,,,,,,,,,,,,,FALSE
BD,Nevada National Security Site,US-64,,Tres Piedras,NM,87577,,,E,,Private - Government only,,Wright_Exp,B20,,,,,,,,,GPS,36.660923,-105.994795,2/22/2021,31301,2022-06-24 21:14:31 UTC,FG,8,U.S. Department of Energy,7/15/2019,,,,,,US,,,,Privé - Réservé au gouvernement,,private,GOVERNMENT,DOE,FED_GOV,,,,,,,,,,,,,,,,,
BD,University of New Hampshire,1 Leavitt Ln,,Durham,NH,3824,,,E,,Private - Government only,"Accessible by local school district, state, and university vehicles only",,B20,,,,,,,,,200-8,43.143865,-70.952901,6/14/2022,31311,2022-06-14 16:22:30 UTC,SG,,,4/15/2007,,,,,,US,,,,Privé - Réservé au gouvernement,,private,GOVERNMENT,,STATE_GOV,,,,,,,,,,,,,,,,,
BD,Great Smoky Mountains National Park - Oconaluftee,107 Park Headquarters Rd,,Gatlinburg,TN,28719,,,E,,Private,,,B20,,,,,,,,,GPS,35.515347,-83.305407,7/12/2022,31494,2022-07-12 20:31:42 UTC,FG,16,Department of the Interior,3/15/2007,,,,,,US,,,,Privé,,private,,DOI,NATL_PARK,,,,,,,,,,,,,,,,,
BD,Marine Corps Recruitment Depot - Parris Island,Talasea St,,Beaufort,SC,29902,,,E,,Private,DOD fleet use only,,B20,,,,,,,,,GPS,32.353269,-80.694832,7/12/2022,31496,2022-07-12 20:31:42 UTC,FG,26,United States Marine Corps,4/15/2007,,,,,,US,,,,Privé,,private,,USMC,MIL_BASE,,,,,,,,,,,,,,,,,
BD,Great Smoky Mountains National Park - Cades Cove,Stillhouse Branch,,Townsend,TN,37882,,,E,,Private,,,B20,,,,,,,,,GPS,35.601939,-83.777511,7/12/2022,31497,2022-07-12 20:31:42 UTC,FG,16,Department of the Interior,3/15/2007,,,,,,US,,,,Privé,,private,,DOI,NATL_PARK,,,,,,,,,,,,,,,,,
BD,State of Michigan - Vehicle & Travel Services Fuel Station,6951 Crowner Dr,,Dimondale,MI,48821,,,E,,Private - Government only,,,B20,,,,,,,,,GPS,42.655503,-84.528919,1/14/2021,31645,2021-11-12 20:46:16 UTC,SG,,,11/15/2006,,,,,,US,,,,Privé - Réservé au gouvernement,,private,GOVERNMENT,,STATE_GOV,,,,,,,,,,,,,,,,,
BD,Star Oilco - Linnton Shell,11330 NW St. Helens Rd,"1 mile north of St Johns Bridge on Highway 30, in town of Linnton, next to Shell Station",Portland,OR,97231,,503-283-1256,E,,Public,"6am-9pm M-F, 7am-9pm Sat, 7am-8pm Sun",A Cash D M V Voyager Wright_Exp,"B99, B50",,,,,,,,,200-9,45.603451,-122.788857,5/5/2022,31656,2022-05-05 20:22:04 UTC,P,,,1/15/2004,,,,,,US,,,,Public,,public,,,CONVENIENCE_STORE,,,,,,,,,,,,,,,,,FALSE
BD,Star Oilco - Pacific Pride,2528 SE Holgate Blvd,,Portland,OR,97202,,503-283-1256,E,,Public - Card key at all times,24 hours daily; contact station to arrange for card key,CFN,"B20, B5",,,,,,,,,200-9,45.490027,-122.639824,5/5/2022,31824,2022-05-05 20:22:04 UTC,P,,,3/15/2004,,,,,,US,,,,Public - Carte-clé en tout temps,,public,KEY_ALWAYS,,STANDALONE_STATION,,,,,,,,,,,,,,,,,FALSE
BD,University of Florida,1037 Magnolia Dr,Bldg 706 Radio Rd,Gainesville,FL,32611,,,E,,Private - Government only,,,B20,,,,,,,,,GPS,29.642861,-82.367897,1/10/2022,32044,2022-10-24 17:10:16 UTC,SG,,,6/15/2007,,,,,,US,,,,Privé - Réservé au gouvernement,,private,GOVERNMENT,,COLLEGE_CAMPUS,,,,,,,,,,,,,,,,,
BD,Central Valley Ag,1504 Platte Ave,One block west of Runza Street.,York,NE,68467,,402-362-1510,E,,Public - Credit card at all times,24 hours daily,A CREDIT D Debit M V Voyager Wright_Exp,B20,,,,,,,,,GPS,40.874587,-97.594431,3/7/2022,32217,2022-03-07 19:49:53 UTC,P,,,4/15/2019,,,,,,US,,,,Public - Carte de crédit en tout temps,,public,CREDIT_CARD_ALWAYS,,COOP,,,,,,,,,,,,,,,,,FALSE
BD,Twice Daily #6603,150 Long Hollow Pike,"I-65, Exit 97",Goodlettsville,TN,37072,,615-851-1877,E,,Public - Credit card at all times,24 hours daily,A Cash D M V Voyager Wright_Exp,B20,,,,,,,,,200-9,36.323459,-86.708259,9/10/2021,32489,2022-10-24 16:53:46 UTC,P,,,3/15/2007,,,,,,US,,,,Public - Carte de crédit en tout temps,,public,CREDIT_CARD_ALWAYS,,CONVENIENCE_STORE,,,,,,,,,,,,,,,,,FALSE
BD,Team Petroleum,105 E Lincoln,,Fort Collins,CO,80524,,970-482-2533,E,,Public - Credit card after hours,7am-5pm M-F,Cash M V,"B20 in summer, B10 in winter",,,,,,,,,200-9,40.587877,-105.067097,1/10/2022,32493,2022-10-12 20:52:53 UTC,P,,,8/15/2007,,,,,,US,,,,Public - Carte de crédit après les heures d'ouverture,,public,CREDIT_CARD_AFTER_HOURS,,FUEL_RESELLER,,,,,,,,,,,,,,,,,FALSE
BD,Pitt County - North Carolina DOT,1811 N Greene St,,Greenville,NC,27834,,,E,,Private - Government only,,,B20,,,,,,,,,200-8,35.641168,-77.367914,4/6/2022,32754,2022-04-06 14:08:04 UTC,SG,,,12/15/2007,,,,,,US,,,,Privé - Réservé au gouvernement,,private,GOVERNMENT,,STATE_GOV,,,,,,,,,,,,,,,,,
BD,Burke County - North Carolina DOT,2161 Mount Home Church Rd,,Morganton,NC,28655,,,E,,Private - Government only,,,B20,,,,,,,,,200-8,35.70512,-81.656635,4/6/2022,32755,2022-04-06 14:08:04 UTC,SG,,,12/15/2007,,,,,,US,,,,Privé - Réservé au gouvernement,,private,GOVERNMENT,,STATE_GOV,,,,,,,,,,,,,,,,,
BD,Rutherford County - North Carolina DOT,909 Ledbetter Rd,,Spindale,NC,28160,,,E,,Private - Government only,,,B20,,,,,,,,,200-8,35.365288,-81.913519,4/6/2022,32756,2022-04-06 14:08:04 UTC,SG,,,12/15/2007,,,,,,US,,,,Privé - Réservé au gouvernement,,private,GOVERNMENT,,STATE_GOV,,,,,,,,,,,,,,,,,
BD,Mitchell County - North Carolina DOT,942 Greenwood Rd,,Spruce Pine,NC,28777,,,E,,Private - Government only,,,B20,,,,,,,,,200-9,35.913459,-82.087011,4/6/2022,32757,2022-04-06 14:08:04 UTC,SG,,,12/15/2007,,,,,,US,,,,Privé - Réservé au gouvernement,,private,GOVERNMENT,,STATE_GOV,,,,,,,,,,,,,,,,,
BD,Yancey County - North Carolina DOT,1115 Bakers Creek Rd,,Burnsville,NC,28714,,,E,,Private - Government only,,,B20,,,,,,,,,GPS,35.907581,-82.348989,4/6/2022,32758,2022-04-06 14:08:04 UTC,SG,,,12/15/2007,,,,,,US,,,,Privé - Réservé au gouvernement,,private,GOVERNMENT,,STATE_GOV,,,,,,,,,,,,,,,,,
BD,Buncombe County - North Carolina DOT,11 Old Charlotte Hwy,,Asheville,NC,28803,,,E,,Private - Government only,,,B20,,,,,,,,,200-8,35.571646,-82.501581,4/6/2022,32759,2022-04-06 14:08:04 UTC,SG,,,12/15/2007,,,,,,US,,,,Privé - Réservé au gouvernement,,private,GOVERNMENT,,STATE_GOV,,,,,,,,,,,,,,,,,
BD,McDowell County - North Carolina DOT,NC-226 S,,Bakersville,NC,28752,,,E,,Private - Government only,,,B20,,,,,,,,,GPS,35.660357,-81.965761,4/6/2022,32760,2022-04-06 14:08:04 UTC,SG,,,12/15/2007,,,,,,US,,,,Privé - Réservé au gouvernement,,private,GOVERNMENT,,STATE_GOV,,,,,,,,,,,,,,,,,
BD,Goddard Space Flight Center,8800 Greenbelt Rd,,Greenbelt,MD,20771,,,E,,Private,NASA fleet use only; Also accessible through chip keys,Proprietor Wright_Exp,B20,,,,,,,,,GPS,38.99791,-76.845822,7/12/2022,32778,2022-07-12 20:31:42 UTC,FG,22,National Aeronautics and Space Administration,12/15/2007,,,,,,US,,,,Privé,,private,,NASA,FED_GOV,,,,,,,,,,,,,,,,,
BD,TH Malloy and Sons,106 Scott Rd,,Cumberland,RI,2864,,401-333-0665,E,,Public - Credit card at all times,8am-4:30pm M-F,Cash D M V,"B99, B20",,,,,,,,,200-9,41.945281,-71.426814,1/10/2022,33414,2022-10-13 17:34:46 UTC,P,,,6/15/2004,,,,,,US,,,,Public - Carte de crédit en tout temps,,public,CREDIT_CARD_ALWAYS,,STANDALONE_STATION,,,,,,,,,,,,,,,,,FALSE
BD,Woolley Fuel Co,12 Burnett Ave,At Springfield Avenue.,Maplewood,NJ,7040,,973-762-7400,E,,Public - Credit card at all times,"8am-4:30pm M-F, 8am-12pm Sat (Sat hours in winter only)",A Cash Checks D M V,"B30, any blend up to B30 available",,,,,,,,,200-8,40.721806,-74.258273,1/10/2022,33488,2022-10-25 15:42:56 UTC,P,,,12/15/2005,,,,,,US,,,,Public - Carte de crédit en tout temps,,public,CREDIT_CARD_ALWAYS,,STANDALONE_STATION,,,,,,,,,,,,,,,,,FALSE
BD,Luke Air Force Base,14160 Marauder St,,Glendale,AZ,85309,,,E,,Private - Government only,Also accepts paying arrangement made with station manager,Wright_Exp,B20,,,,,,,,,200-8,33.544292,-112.364362,7/12/2022,33588,2022-07-12 20:31:42 UTC,FG,5,Department of Air Force,12/15/2008,,,,,,US,,,,Privé - Réservé au gouvernement,,private,GOVERNMENT,DAF,MIL_BASE,,,,,,,,,,,,,,,,,
BD,Jet Propulsion Laboratory,4800 Oak Grove Dr,,Pasadena,CA,91109,,,E,,Private,Also accessible through chip keys,Proprietor Wright_Exp,B20,,,,,,,,,GPS,34.198642,-118.174611,7/12/2022,33598,2022-07-12 20:31:42 UTC,FG,22,National Aeronautics and Space Administration,12/15/2008,,,,,,US,,,,Privé,,private,,NASA,RESEARCH_FACILITY,,,,,,,,,,,,,,,,,
BD,Miramar Marine Corps Air Station,Bauer Rd & Gonsalves Ave,,San Diego,CA,92126,,,E,,Private,DOD fleet use only,,B20,,,,,,,,,GPS,32.887271,-117.12411,7/12/2022,33599,2022-07-12 20:31:42 UTC,FG,26,United States Marine Corps,12/15/2008,,,,,,US,,,,Privé,,private,,USMC,MIL_BASE,,,,,,,,,,,,,,,,,
BD,Camp Lejeune Marine Corps Base,1070 Michael Rd,,Camp Lejeune,NC,28542,,,E,,Private,DOD fleet use only,,B20,,,,,,,,,GPS,34.672015,-77.329518,7/12/2022,33615,2022-07-12 20:31:42 UTC,FG,26,United States Marine Corps,12/15/2008,,,,,,US,,,,Privé,,private,,USMC,MIL_BASE,,,,,,,,,,,,,,,,,
BD,Cherry Point Marine Corps Air Station,Curtis & 2nd Ave,,Cherry Point,NC,28533,,,E,,Private - Government only,,,B20,,,,,,,,,GPS,34.896218,-76.897275,7/12/2022,33617,2022-07-12 20:31:42 UTC,FG,26,United States Marine Corps,12/15/2008,,,,,,US,,,,Privé - Réservé au gouvernement,,private,GOVERNMENT,USMC,MIL_BASE,,,,,,,,,,,,,,,,,
BD,Princeton Plasma Physics Laboratory,100 Stellarator Rd,,Princeton,NJ,8453,,,E,,Private - Government only,,,B20,,,,,,,,,GPS,40.350011,-74.604169,7/12/2022,33620,2022-07-12 20:31:42 UTC,FG,8,U.S. Department of Energy,12/15/2008,,,,,,US,,,,Privé - Réservé au gouvernement,,private,GOVERNMENT,DOE,RESEARCH_FACILITY,,,,,,,,,,,,,,,,,
BD,Charleston Air Force Base,201 W Simpson St,,Charleston,SC,29404,,,E,,Private - Government only,Also accepts paying arrangement made with station manager,Wright_Exp,B20,,,,,,,,,GPS,32.89995,-80.057274,7/12/2022,33625,2022-07-12 20:31:42 UTC,FG,5,Department of Air Force,12/15/2008,,,,,,US,,,,Privé - Réservé au gouvernement,,private,GOVERNMENT,DAF,MIL_BASE,,,,,,,,,,,,,,,,,
BD,Eglin Air Force Base,3005 Eglin Blvd,,Eglin AFB,FL,32542,,,E,,Private - Government only,Also accepts paying arrangement made with station manager,Wright_Exp,B20,,,,,,,,,GPS,30.46812,-86.548573,7/12/2022,33630,2022-07-12 20:31:42 UTC,FG,5,Department of Air Force,12/15/2008,,,,,,US,,,,Privé - Réservé au gouvernement,,private,GOVERNMENT,DAF,MIL_BASE,,,,,,,,,,,,,,,,,
BD,MacDill Air Force Base,2914 Great Egret Ave,,Tampa,FL,33621,,,E,,Private - Government only,Also accepts paying arrangement made with station manager,Wright_Exp,B20,,,,,,,,,200-8,27.859739,-82.495022,7/12/2022,33631,2022-07-12 20:31:42 UTC,FG,5,Department of Air Force,12/15/2008,,,,,,US,,,,Privé - Réservé au gouvernement,,private,GOVERNMENT,DAF,MIL_BASE,,,,,,,,,,,,,,,,,
BD,Downs Energy,1296 Magnolia Ave,I-15 & Magnolia Ave,Corona,CA,92879,,951-737-9866,E,,Public - Card key at all times,8am-5pm daily; contact station for required Downs Energy fuel card,Proprietor,B20,,,,,,,,,200-9,33.86645,-117.539117,7/12/2022,33887,2022-07-12 20:31:42 UTC,P,,,3/23/2019,,,,,,US,,,,Public - Carte-clé en tout temps,,public,KEY_ALWAYS,,STANDALONE_STATION,,,,,,,,,,,,,,,,,FALSE
BD,Dogpatch Biofuels,765 Pennsylvania Ave,Between 22nd and 23rd,San Francisco,CA,94107,,415-642-7378,E,,Public - Credit card at all times,24 hours daily; contact station to arrange for card key,M Proprietor V Voyager Wright_Exp,B20,,,,,,,,,200-9,37.757379,-122.392821,9/14/2022,33915,2022-09-14 15:49:44 UTC,P,,,3/15/2009,,,,,,US,,,,Public - Carte de crédit en tout temps,,public,CREDIT_CARD_ALWAYS,,STANDALONE_STATION,,,,,,,,,,,,,,,,,FALSE
BD,New York State Thruway Authority - Larchmont Section 4,629 5th Ave,,Larchmont,NY,10538,,,E,,Private - Government only,Thruway vehicles only,,B20,,,,,,,,,200-8,40.931706,-73.766018,1/10/2022,33986,2022-11-07 20:27:10 UTC,SG,,,7/15/2008,,,,,,US,,,,Privé - Réservé au gouvernement,,private,GOVERNMENT,,FLEET_GARAGE,,,,,,,,,,,,,,,,,
BD,New York State Thruway Authority - Nyack Section 5,201 N Route 303,,West Nyack,NY,10994,,,E,,Private - Government only,Thruway vehicles only,,B20,,,,,,,,,200-8,41.101648,-73.952196,1/10/2022,33989,2022-04-18 17:38:55 UTC,SG,,,7/15/2008,,,,,,US,,,,Privé - Réservé au gouvernement,,private,GOVERNMENT,,FLEET_GARAGE,,,,,,,,,,,,,,,,,
BD,Naval Base Kitsap Bangor - Defense Energy Support Center,Building 1204 Skate St,,Silverdale,WA,98315,,,E,,Private - Government only,,,B20,,,,,,,,,GPS,47.6973044,-122.6997705,7/12/2022,34305,2022-07-12 20:31:42 UTC,FG,14,Department of Navy,4/28/2009,,,,,,US,,,,Privé - Réservé au gouvernement,,private,GOVERNMENT,DON,MIL_BASE,,,,,,,,,,,,,,,,,
BD,Hoke County - North Carolina DOT,390 Mockingbird Hill Rd,SR1311; 0.4 miles N. of NC 211,Raeford,NC,28376,,,E,,Private - Government only,,,B20,,,,,,,,,200-9,34.99185,-79.243462,4/6/2022,34640,2022-04-06 14:08:04 UTC,SG,,,1/1/2009,,,,,,US,,,,Privé - Réservé au gouvernement,,private,GOVERNMENT,,STATE_GOV,,,,,,,,,,,,,,,,,
BD,Graham County - North Carolina DOT,40 State Shed Rd,SR1211; 0.1 miles off US129 in Robbinsville,Robbinsville,NC,28771,,,E,,Private - Government only,,,B20,,,,,,,,,200-8,35.320434,-83.801154,4/6/2022,34641,2022-04-06 14:08:04 UTC,SG,,,1/1/2009,,,,,,US,,,,Privé - Réservé au gouvernement,,private,GOVERNMENT,,STATE_GOV,,,,,,,,,,,,,,,,,
BD,Richmond County - North Carolina DOT,SR-1005,2 miles NW of intersection of US 74 & US 220,Rockingham,NC,28379,,,E,,Private - Government only,,,B20,,,,,,,,,GPS,34.964078,-79.796431,4/6/2022,34642,2022-04-06 14:08:04 UTC,SG,,,1/1/2009,,,,,,US,,,,Privé - Réservé au gouvernement,,private,GOVERNMENT,,STATE_GOV,,,,,,,,,,,,,,,,,
BD,Transylvania County - North Carolina DOT,Old Rosman Hwy,0.05 miles off US 64 at Calvert near Rosman,Rosman,NC,28772,,,E,,Private - Government only,,,B20,,,,,,,,,GPS,35.157169,-82.812528,4/6/2022,34643,2022-04-06 14:08:04 UTC,SG,,,1/1/2009,,,,,,US,,,,Privé - Réservé au gouvernement,,private,GOVERNMENT,,STATE_GOV,,,,,,,,,,,,,,,,,
BD,Rowan County - North Carolina DOT,Camp Rd,"off US 29, 5 miles S. of Salisbury",Salisbury,NC,28147,,,E,,Private - Government only,,,B20,,,,,,,,,GPS,35.620381,-80.535289,4/6/2022,34644,2022-04-06 14:08:04 UTC,SG,,,1/1/2009,,,,,,US,,,,Privé - Réservé au gouvernement,,private,GOVERNMENT,,STATE_GOV,,,,,,,,,,,,,,,,,
BD,Lee County - North Carolina DOT,1502 S 7th St,,Sanford,NC,27330,,,E,,Private - Government only,,,B20,,,,,,,,,200-9,35.472517,-79.158355,4/6/2022,34645,2022-04-06 14:08:04 UTC,SG,,,1/1/2009,,,,,,US,,,,Privé - Réservé au gouvernement,,private,GOVERNMENT,,STATE_GOV,,,,,,,,,,,,,,,,,
BD,Brunswick County - North Carolina DOT,NC-1348,0.5 miles N. of SR 1349 & SR 1349 intersection N of Shallotte,Shallotte,NC,28470,,,E,,Private - Government only,,,B20,,,,,,,,,GPS,33.982033,-78.389647,4/6/2022,34646,2022-04-06 14:08:04 UTC,SG,,,1/1/2009,,,,,,US,,,,Privé - Réservé au gouvernement,,private,GOVERNMENT,,STATE_GOV,,,,,,,,,,,,,,,,,
BD,Chatham County - North Carolina DOT,E Raleigh St,SR 2103; 0.7 miles NE of Siler City,Siler City,NC,27344,,,E,,Private - Government only,,,B20,,,,,,,,,GPS,35.730722,-79.445217,4/6/2022,34647,2022-04-06 14:08:04 UTC,SG,,,1/1/2009,,,,,,US,,,,Privé - Réservé au gouvernement,,private,GOVERNMENT,,STATE_GOV,,,,,,,,,,,,,,,,,
BD,Johnston County - North Carolina DOT,US-70,2.6 miles W. of Selma,Smithfield,NC,27577,,,E,,Private - Government only,,,B20,,,,,,,,,GPS,35.562658,-78.336264,4/6/2022,34648,2022-04-06 14:08:04 UTC,SG,,,1/1/2009,,,,,,US,,,,Privé - Réservé au gouvernement,,private,GOVERNMENT,,STATE_GOV,,,,,,,,,,,,,,,,,
BD,Alleghany County - North Carolina DOT,NC-1172,0.35 miles S of US21 in Sparta,Sparta,NC,28675,,,E,,Private - Government only,,,B20,,,,,,,,,GPS,36.497708,-81.117539,4/6/2022,34649,2022-04-06 14:08:04 UTC,SG,,,1/1/2009,,,,,,US,,,,Privé - Réservé au gouvernement,,private,GOVERNMENT,,STATE_GOV,,,,,,,,,,,,,,,,,
BD,Hyde County - North Carolina DOT,SR-1129,"Near intersection W. SR1124,  1 miles from Swan Quarter",Swan Quarter,NC,27885,,,E,,Private - Government only,,,B20,,,,,,,,,GPS,35.410936,-76.328608,4/6/2022,34650,2022-04-06 14:08:04 UTC,SG,,,1/1/2009,,,,,,US,,,,Privé - Réservé au gouvernement,,private,GOVERNMENT,,STATE_GOV,,,,,,,,,,,,,,,,,
BD,Jackson County - North Carolina DOT,NC-116,0.2 miles W. of NC 107,Sylvia,NC,28779,,,E,,Private - Government only,,,B20,,,,,,,,,GPS,35.350833,-83.206128,4/6/2022,34651,2022-04-06 14:08:04 UTC,SG,,,1/1/2009,,,,,,US,,,,Privé - Réservé au gouvernement,,private,GOVERNMENT,,STATE_GOV,,,,,,,,,,,,,,,,,
BD,Lenoir County - North Carolina DOT,US-258,0.5 miles S. of Kinston,Kinston,NC,28501,,,E,,Private - Government only,,,B20,,,,,,,,,GPS,35.238497,-77.593897,4/6/2022,34652,2022-04-06 14:08:04 UTC,SG,,,1/1/2009,,,,,,US,,,,Privé - Réservé au gouvernement,,private,GOVERNMENT,,STATE_GOV,,,,,,,,,,,,,,,,,
BD,Caldwell County - North Carolina DOT,Pleasant Hill Rd,SR-1159; 0.6 miles W. of Hudson,Lenoir,NC,28645,,,E,,Private - Government only,,,B20,,,,,,,,,GPS,35.854986,-81.522756,4/6/2022,34653,2022-04-06 14:08:04 UTC,SG,,,1/1/2009,,,,,,US,,,,Privé - Réservé au gouvernement,,private,GOVERNMENT,,STATE_GOV,,,,,,,,,,,,,,,,,
BD,Davidson County - North Carolina DOT,Raleigh Rd,"Old US-64; Exit 94 off I-85, 1.5 miles E. of Lexington at Davidson County Prison Camp",Lexington,NC,27292,,,E,,Private - Government only,,,B20,,,,,,,,,GPS,35.814847,-80.229561,4/6/2022,34654,2022-04-06 14:08:04 UTC,SG,,,1/1/2009,,,,,,US,,,,Privé - Réservé au gouvernement,,private,GOVERNMENT,,STATE_GOV,,,,,,,,,,,,,,,,,
BD,Harnet County - North Carolina DOT,1108 E McNeill St,"SR-2016, 1 mile east of US-401",Lillington,NC,27546,,,E,,Private - Government only,,,B20,,,,,,,,,GPS,35.390328,-78.802675,4/6/2022,34655,2022-04-06 14:08:04 UTC,SG,,,1/1/2009,,,,,,US,,,,Privé - Réservé au gouvernement,,private,GOVERNMENT,,STATE_GOV,,,,,,,,,,,,,,,,,
BD,Robeson County - North Carolina DOT,NC-711,0.4 miles from NC-72,Lumberton,NC,28360,,,E,,Private - Government only,,,B20,,,,,,,,,GPS,34.626447,-79.077147,4/6/2022,34656,2022-04-06 14:08:04 UTC,SG,,,1/1/2009,,,,,,US,,,,Privé - Réservé au gouvernement,,private,GOVERNMENT,,STATE_GOV,,,,,,,,,,,,,,,,,
BD,Dare County - North Carolina DOT,Simon St,SR-1128; 0.5 miles W. of 64/264,Manteo,NC,27954,,,E,,Private - Government only,,,B20,,,,,,,,,GPS,35.906367,-75.676864,4/6/2022,34657,2022-04-06 14:08:04 UTC,SG,,,1/1/2009,,,,,,US,,,,Privé - Réservé au gouvernement,,private,GOVERNMENT,,STATE_GOV,,,,,,,,,,,,,,,,,
BD,Cherokee County - North Carolina DOT,NC-141,2.5 miles S. US-74 at Marble,Marble,NC,28905,,,E,,Private - Government only,,,B20,,,,,,,,,GPS,35.138558,-83.926775,4/6/2022,34658,2022-04-06 14:08:04 UTC,SG,,,1/1/2009,,,,,,US,,,,Privé - Réservé au gouvernement,,private,GOVERNMENT,,STATE_GOV,,,,,,,,,,,,,,,,,
BD,Madison County - North Carolina DOT,US-70 & US-25 Business,Intersection of US-70/25 bypass N of Marshall,Marshall,NC,28753,,,E,,Private - Government only,,,B20,,,,,,,,,GPS,35.812936,-82.689139,4/6/2022,34659,2022-04-06 14:08:04 UTC,SG,,,1/1/2009,,,,,,US,,,,Privé - Réservé au gouvernement,,private,GOVERNMENT,,STATE_GOV,,,,,,,,,,,,,,,,,
BD,Greene County - North Carolina DOT,Highway 903,"NC-102 to Highway 903, 0.8 miles W. of Maury",Maury,NC,28580,,,E,,Private - Government only,,,B20,,,,,,,,,GPS,35.477386,-77.595875,4/6/2022,34660,2022-04-06 14:08:04 UTC,SG,,,1/1/2009,,,,,,US,,,,Privé - Réservé au gouvernement,,private,GOVERNMENT,,STATE_GOV,,,,,,,,,,,,,,,,,
BD,Guilford County - North Carolina DOT,4253 Camp Burton Rd,"On State Route 2826, 7 miles northeast of Greensboro, off Rankin Mill Rd",McLeansville,NC,27301,,,E,,Private - Government only,,,B20,,,,,,,,,200-8,36.117168,-79.696087,4/6/2022,34661,2022-04-06 14:08:04 UTC,SG,,,1/1/2009,,,,,,US,,,,Privé - Réservé au gouvernement,,private,GOVERNMENT,,STATE_GOV,,,,,,,,,,,,,,,,,
BD,Davie County - North Carolina DOT,Prison Camp Rd,"2 miles W. of Mocksville, near intersection of SR-1140 & SR-1141",Mocksville,NC,27028,,,E,,Private - Government only,,,B20,,,,,,,,,GPS,35.883928,-80.591267,4/6/2022,34662,2022-04-06 14:08:04 UTC,SG,,,1/1/2009,,,,,,US,,,,Privé - Réservé au gouvernement,,private,GOVERNMENT,,STATE_GOV,,,,,,,,,,,,,,,,,
BD,Wilkes County - North Carolina DOT,303 Statesville Rd,NC-115; past Yadkin River on right,North Wilkesboro,NC,28659,,,E,,Private - Government only,,,B20,,,,,,,,,200-8,36.165939,-81.134586,4/6/2022,34663,2022-04-06 14:08:04 UTC,SG,,,1/1/2009,,,,,,US,,,,Privé - Réservé au gouvernement,,private,GOVERNMENT,,STATE_GOV,,,,,,,,,,,,,,,,,
BD,Nash County - North Carolina DOT,US-64,2.2 miles W of Nashville,Nashville,NC,27856,,,E,,Private - Government only,,,B20,,,,,,,,,GPS,35.969108,-78.019656,4/6/2022,34664,2022-04-06 14:08:04 UTC,SG,,,1/1/2009,,,,,,US,,,,Privé - Réservé au gouvernement,,private,GOVERNMENT,,STATE_GOV,,,,,,,,,,,,,,,,,
BD,Craven County - North Carolina DOT,S Glenburnie Rd,SR-1402; 0.8 miles N. of US 70,New Bern,NC,28560,,,E,,Private - Government only,,,B20,,,,,,,,,GPS,35.133775,-77.075725,4/6/2022,34665,2022-04-06 14:08:04 UTC,SG,,,1/1/2009,,,,,,US,,,,Privé - Réservé au gouvernement,,private,GOVERNMENT,,STATE_GOV,,,,,,,,,,,,,,,,,
BD,Mecklenburg County - North Carolina DOT,7703 District Dr,Off Newell-Hickory Grove Rd SR-2853; off Old Concord Rd,Charlotte,NC,28213,,,E,,Private - Government only,,,B20,,,,,,,,,200-9,35.271148,-80.737143,4/6/2022,34666,2022-04-06 14:08:04 UTC,SG,,,1/1/2009,,,,,,US,,,,Privé - Réservé au gouvernement,,private,GOVERNMENT,,STATE_GOV,,,,,,,,,,,,,,,,,
BD,Avery County - North Carolina DOT,NC-1346 & NC-181,,Newland,NC,28657,,,E,,Private - Government only,,,B20,,,,,,,,,GPS,36.076711,-81.912305,4/6/2022,34667,2022-04-06 14:08:04 UTC,SG,,,1/1/2009,,,,,,US,,,,Privé - Réservé au gouvernement,,private,GOVERNMENT,,STATE_GOV,,,,,,,,,,,,,,,,,
BD,Carteret County - North Carolina DOT,Mason Town Rd,SR 1402; 0.8 miles N. of US 70,Newport,NC,28570,,,E,,Private - Government only,,,B20,,,,,,,,,GPS,34.805444,-76.868708,4/6/2022,34668,2022-04-06 14:08:04 UTC,SG,,,1/1/2009,,,,,,US,,,,Privé - Réservé au gouvernement,,private,GOVERNMENT,,STATE_GOV,,,,,,,,,,,,,,,,,
BD,Washington & Tyrell County - North Carolina DOT,US-64,4 miles E of Creswell,Creswell,NC,27928,,,E,,Private - Government only,,,B20,,,,,,,,,GPS,35.903742,-76.298178,4/6/2022,34669,2022-04-06 14:08:04 UTC,SG,,,1/1/2009,,,,,,US,,,,Privé - Réservé au gouvernement,,private,GOVERNMENT,,STATE_GOV,,,,,,,,,,,,,,,,,
BD,Surry County - North Carolina DOT,703 Prison Camp Rd,SR-1345; 1.8 miles N. of Dobson,Dobson,NC,27017,,,E,,Private - Government only,,,B20,,,,,,,,,200-8,36.443619,-80.756183,4/6/2022,34670,2022-04-06 14:08:04 UTC,SG,,,1/1/2009,,,,,,US,,,,Privé - Réservé au gouvernement,,private,GOVERNMENT,,STATE_GOV,,,,,,,,,,,,,,,,,
BD,Chowan County - North Carolina DOT,State Route 1303,2.3 miles north of Valhalla and 0.5 miles from NC 32,Edenton,NC,27932,,,E,,Private - Government only,,,B20,,,,,,,,,GPS,36.164242,-76.650197,4/6/2022,34671,2022-04-06 14:08:04 UTC,SG,,,1/1/2009,,,,,,US,,,,Privé - Réservé au gouvernement,,private,GOVERNMENT,,STATE_GOV,,,,,,,,,,,,,,,,,
BD,Pasquotank & Camden County - North Carolina DOT,US-17,4.5 miles north of Elizabeth City,Elizabeth City,NC,27909,,,E,,Private - Government only,,,B20,,,,,,,,,GPS,36.342781,-76.257439,4/6/2022,34672,2022-04-06 14:08:04 UTC,SG,,,1/1/2009,,,,,,US,,,,Privé - Réservé au gouvernement,,private,GOVERNMENT,,STATE_GOV,,,,,,,,,,,,,,,,,
BD,Bladen County - North Carolina DOT,US-701 N,1.5 miles S. of White Lake,Elizabethtown,NC,28337,,,E,,Private - Government only,,,B20,,,,,,,,,GPS,34.654536,-78.521008,4/6/2022,34673,2022-04-06 14:08:04 UTC,SG,,,1/1/2009,,,,,,US,,,,Privé - Réservé au gouvernement,,private,GOVERNMENT,,STATE_GOV,,,,,,,,,,,,,,,,,
BD,Cumberland County - North Carolina DOT,549 Transportation Dr,Poe St and Transportation Dr,Fayetteville,NC,28306,,,E,,Private - Government only,,,B20,,,,,,,,,GPS,35.0431575,-78.8839848,4/6/2022,34674,2022-04-06 14:08:04 UTC,SG,,,1/1/2009,,,,,,US,,,,Privé - Réservé au gouvernement,,private,GOVERNMENT,,STATE_GOV,,,,,,,,,,,,,,,,,
BD,Macon County - North Carolina DOT,Windy Gap Rd,SR-1322; 0.2 miles off NC-28 N,Franklin,NC,28734,,,E,,Private - Government only,,,B20,,,,,,,,,GPS,35.191767,-83.394975,4/6/2022,34675,2022-04-06 14:08:04 UTC,SG,,,1/1/2009,,,,,,US,,,,Privé - Réservé au gouvernement,,private,GOVERNMENT,,STATE_GOV,,,,,,,,,,,,,,,,,
BD,Gates County - North Carolina DOT,US-158,"At Gates County Prison Camp, 6.6 miles west of Sunbury",Gatesville,NC,27938,,,E,,Private - Government only,,,B20,,,,,,,,,GPS,36.436817,-76.721089,4/6/2022,34676,2022-04-06 14:08:04 UTC,SG,,,1/1/2009,,,,,,US,,,,Privé - Réservé au gouvernement,,private,GOVERNMENT,,STATE_GOV,,,,,,,,,,,,,,,,,
BD,Wayne County - North Carolina DOT,2671 US-70 W,,Goldsboro,NC,27534,,,E,,Private - Government only,,,B20,,,,,,,,,200-9,35.421486,-78.057747,4/6/2022,34677,2022-04-06 14:08:04 UTC,SG,,,1/1/2009,,,,,,US,,,,Privé - Réservé au gouvernement,,private,GOVERNMENT,,STATE_GOV,,,,,,,,,,,,,,,,,
BD,Alamance County - North Carolina DOT,Prison Camp Rd,SR-2103; 1 miles off NC-87 at I-85,Graham,NC,27253,,,E,,Private - Government only,,,B20,,,,,,,,,GPS,36.057317,-79.394164,4/6/2022,34678,2022-04-06 14:08:04 UTC,SG,,,1/1/2009,,,,,,US,,,,Privé - Réservé au gouvernement,,private,GOVERNMENT,,STATE_GOV,,,,,,,,,,,,,,,,,
BD,Pamlico County - North Carolina DOT,NC-306,2.5 miles S. of Grantsboro,Grantsboro,NC,28529,,,E,,Private - Government only,,,B20,,,,,,,,,GPS,35.1053,-76.837247,4/6/2022,34679,2022-04-06 14:08:04 UTC,SG,,,1/1/2009,,,,,,US,,,,Privé - Réservé au gouvernement,,private,GOVERNMENT,,STATE_GOV,,,,,,,,,,,,,,,,,
BD,Halifax County - North Carolina DOT,NC-903,1.5 miles NW of Halifax,Halifax,NC,27839,,,E,,Private - Government only,,,B20,,,,,,,,,GPS,36.343169,-77.615378,4/6/2022,34680,2022-04-06 14:08:04 UTC,SG,,,1/1/2009,,,,,,US,,,,Privé - Réservé au gouvernement,,private,GOVERNMENT,,STATE_GOV,,,,,,,,,,,,,,,,,
BD,Currituck County - North Carolina DOT,Lucinda Ln,"Off Highway 158, pumps at end of road",Poplar Branch,NC,27966,,,E,,Private - Government only,,,B20,,,,,,,,,GPS,36.106211,-75.82845,4/6/2022,34681,2022-04-06 14:08:04 UTC,SG,,,1/1/2009,,,,,,US,,,,Privé - Réservé au gouvernement,,private,GOVERNMENT,,STATE_GOV,,,,,,,,,,,,,,,,,
BD,Clay County - North Carolina DOT,225 Tusquittee Rd,SR-1307,Hayesville,NC,28904,,,E,,Private - Government only,,,B20,,,,,,,,,200-8,35.055282,-83.816238,4/6/2022,34682,2022-04-06 14:08:04 UTC,SG,,,1/1/2009,,,,,,US,,,,Privé - Réservé au gouvernement,,private,GOVERNMENT,,STATE_GOV,,,,,,,,,,,,,,,,,
BD,Henderson County - North Carolina DOT,693 Mountain Rd,SR-1381; 0.1 miles off NC-191 4 miles N. of Hendersonville,Hendersonville,NC,28791,,,E,,Private - Government only,,,B20,,,,,,,,,200-8,35.35738,-82.502236,4/6/2022,34683,2022-04-06 14:08:04 UTC,SG,,,1/1/2009,,,,,,US,,,,Privé - Réservé au gouvernement,,private,GOVERNMENT,,STATE_GOV,,,,,,,,,,,,,,,,,
BD,Perquimans County - North Carolina DOT,US-17,0.4 miles south of Route 17 & State Route 1220 intersection,Hertford,NC,27944,,,E,,Private - Government only,,,B20,,,,,,,,,GPS,36.212364,-76.437608,4/6/2022,34684,2022-04-06 14:08:04 UTC,SG,,,1/1/2009,,,,,,US,,,,Privé - Réservé au gouvernement,,private,GOVERNMENT,,STATE_GOV,,,,,,,,,,,,,,,,,
BD,Orange County - North Carolina DOT,NC-1009,0.5 miles S. of I-85,Hillsborough,NC,27278,,,E,,Private - Government only,,,B20,,,,,,,,,GPS,36.052278,-79.101494,4/6/2022,34685,2022-04-06 14:08:04 UTC,SG,,,1/1/2009,,,,,,US,,,,Privé - Réservé au gouvernement,,private,GOVERNMENT,,STATE_GOV,,,,,,,,,,,,,,,,,
BD,Northampton County - North Carolina DOT,NC-305,1.4 miles N. of US-158 & NC-305 intersection,Jackson,NC,27845,,,E,,Private - Government only,,,B20,,,,,,,,,GPS,36.408539,-77.437747,4/6/2022,34686,2022-04-06 14:08:04 UTC,SG,,,1/1/2009,,,,,,US,,,,Privé - Réservé au gouvernement,,private,GOVERNMENT,,STATE_GOV,,,,,,,,,,,,,,,,,
BD,Onslow County - North Carolina DOT,US-17,0.5 miles S. of US-17 & US-258,Jacksonville,NC,28540,,,E,,Private - Government only,,,B20,,,,,,,,,GPS,34.746922,-77.454078,4/6/2022,34687,2022-04-06 14:08:04 UTC,SG,,,1/1/2009,,,,,,US,,,,Privé - Réservé au gouvernement,,private,GOVERNMENT,,STATE_GOV,,,,,,,,,,,,,,,,,
BD,Duplin County - North Carolina DOT,NC-11,1 mile S. of Kenansville at NC-11 & SR-903,Kenansville,NC,28349,,,E,,Private - Government only,,,B20,,,,,,,,,GPS,34.942628,-77.968611,4/6/2022,34688,2022-04-06 14:08:04 UTC,SG,,,1/1/2009,,,,,,US,,,,Privé - Réservé au gouvernement,,private,GOVERNMENT,,STATE_GOV,,,,,,,,,,,,,,,,,
BD,Hertford County - North Carolina DOT,Modlin Hatchery Rd,SR-1130; 2 miles west of US 13; 4 miles NW of Ahoskie,Ahoskie,NC,27910,,,E,,Private - Government only,,,B20,,,,,,,,,GPS,36.327819,-77.023125,4/6/2022,34689,2022-04-06 14:08:04 UTC,SG,,,1/1/2009,,,,,,US,,,,Privé - Réservé au gouvernement,,private,GOVERNMENT,,STATE_GOV,,,,,,,,,,,,,,,,,
BD,Stanly County - North Carolina DOT,Coble Ave,SR-1900; 0.15 miles south of NC 24-27,Albemarle,NC,28001,,,E,,Private - Government only,,,B20,,,,,,,,,GPS,35.337572,-80.213772,4/6/2022,34690,2022-04-06 14:08:04 UTC,SG,,,1/1/2009,,,,,,US,,,,Privé - Réservé au gouvernement,,private,GOVERNMENT,,STATE_GOV,,,,,,,,,,,,,,,,,
BD,Randolph County - North Carolina DOT,NC-1150,At intersection with US 220 & Southmont Dr; 1.3 miles South of Asheboro,Asheboro,NC,27205,,,E,,Private - Government only,,,B20,,,,,,,,,GPS,35.667722,-79.827075,4/6/2022,34691,2022-04-06 14:08:04 UTC,SG,,,1/1/2009,,,,,,US,,,,Privé - Réservé au gouvernement,,private,GOVERNMENT,,STATE_GOV,,,,,,,,,,,,,,,,,
BD,Watauga County - North Carolina DOT,NC-194,1.3 miles NE of Boone,Boone,NC,28607,,,E,,Private - Government only,,,B20,,,,,,,,,GPS,36.243264,-81.656567,4/6/2022,34692,2022-04-06 14:08:04 UTC,SG,,,1/1/2009,,,,,,US,,,,Privé - Réservé au gouvernement,,private,GOVERNMENT,,STATE_GOV,,,,,,,,,,,,,,,,,
BD,Swain County - North Carolina DOT,Toot Hollow Rd,SR-1333; 0.5 miles N. of US 19 in Bryson City,Bryson City,NC,28713,,,E,,Private - Government only,,,B20,,,,,,,,,GPS,35.437372,-83.4494,4/6/2022,34693,2022-04-06 14:08:04 UTC,SG,,,1/1/2009,,,,,,US,,,,Privé - Réservé au gouvernement,,private,GOVERNMENT,,STATE_GOV,,,,,,,,,,,,,,,,,
BD,Pender County - North Carolina DOT,Smith Rd,SR-1400; 0.25 miles N. of SR-1400 & SR-1332,Burgaw,NC,28425,,,E,,Private - Government only,,,B20,,,,,,,,,GPS,34.555033,-77.934,4/6/2022,34694,2022-04-06 14:08:04 UTC,SG,,,1/1/2009,,,,,,US,,,,Privé - Réservé au gouvernement,,private,GOVERNMENT,,STATE_GOV,,,,,,,,,,,,,,,,,
BD,Moore County - North Carolina DOT,NC-1652,"US 15-501 Intersection, 1.5 miles E. of Carthage",Carthage,NC,28327,,,E,,Private - Government only,,,B20,,,,,,,,,GPS,35.347919,-79.380731,4/6/2022,34695,2022-04-06 14:08:04 UTC,SG,,,1/1/2009,,,,,,US,,,,Privé - Réservé au gouvernement,,private,GOVERNMENT,,STATE_GOV,,,,,,,,,,,,,,,,,
BD,New Hanover County - North Carolina DOT,Barbados Blvd,"I-40 Exit 414 onto Holly Shelter Rd, Right onto Barbados Blvd, site on left",Castle Hayne,NC,28429,,,E,,Private - Government only,,,B20,,,,,,,,,GPS,34.345108,-77.876581,4/6/2022,34696,2022-04-06 14:08:04 UTC,SG,,,1/1/2009,,,,,,US,,,,Privé - Réservé au gouvernement,,private,GOVERNMENT,,STATE_GOV,,,,,,,,,,,,,,,,,
BD,Sampson County - North Carolina DOT,NC-1311,"Between US 421 & US 701, 0.5 miles N. of Clinton",Clinton,NC,28328,,,E,,Private - Government only,,,B20,,,,,,,,,GPS,35.016086,-78.338425,4/6/2022,34697,2022-04-06 14:08:04 UTC,SG,,,1/1/2009,,,,,,US,,,,Privé - Réservé au gouvernement,,private,GOVERNMENT,,STATE_GOV,,,,,,,,,,,,,,,,,
BD,Columbus County - North Carolina DOT,Prison Camp Rd,SR-1170; 1 miles W of NC 130,Columbus,NC,28472,,,E,,Private - Government only,,,B20,,,,,,,,,GPS,34.280347,-78.717108,4/6/2022,34698,2022-04-06 14:08:04 UTC,SG,,,1/1/2009,,,,,,US,,,,Privé - Réservé au gouvernement,,private,GOVERNMENT,,STATE_GOV,,,,,,,,,,,,,,,,,
BD,Polk County - North Carolina DOT,Locus St,0.1 miles off NC-108 in Columbus,Columbus,NC,28722,,,E,,Private - Government only,,,B20,,,,,,,,,GPS,35.252569,-82.193372,4/6/2022,34699,2022-04-06 14:08:04 UTC,SG,,,1/1/2009,,,,,,US,,,,Privé - Réservé au gouvernement,,private,GOVERNMENT,,STATE_GOV,,,,,,,,,,,,,,,,,
BD,Edgecombe County - North Carolina DOT,Wilson St,NC-111; 1.8 miles SW of Tarboro,Tarboro,NC,27886,,,E,,Private - Government only,,,B20,,,,,,,,,GPS,35.880314,-77.575028,4/6/2022,34704,2022-04-06 14:08:04 UTC,SG,,,1/1/2009,,,,,,US,,,,Privé - Réservé au gouvernement,,private,GOVERNMENT,,STATE_GOV,,,,,,,,,,,,,,,,,
BD,Jones County - North Carolina DOT,336 Highway 41 E,0.3 miles NE of Trenton,Trenton,NC,28585,,,E,,Private - Government only,,,B20,,,,,,,,,200-8,35.073927,-77.34909,4/6/2022,34705,2022-04-06 14:08:04 UTC,SG,,,1/1/2009,,,,,,US,,,,Privé - Réservé au gouvernement,,private,GOVERNMENT,,STATE_GOV,,,,,,,,,,,,,,,,,
BD,Montgomery County - North Carolina DOT,Prison Camp Rd,SR1422; US1 TO 74 W (toward Charlotte),Wadesboro,NC,28135,,,E,,Private - Government only,,,B20,,,,,,,,,GPS,34.992892,-80.180222,4/6/2022,34707,2022-04-06 14:08:04 UTC,SG,,,1/1/2009,,,,,,US,,,,Privé - Réservé au gouvernement,,private,GOVERNMENT,,STATE_GOV,,,,,,,,,,,,,,,,,
BD,Scotland County - North Carolina DOT,US-401 & SR-1407,0.9 miles S. of Wagram,Wagram,NC,28396,,,E,,Private - Government only,,,B20,,,,,,,,,GPS,34.873986,-79.381872,4/6/2022,34708,2022-04-06 14:08:04 UTC,SG,,,1/1/2009,,,,,,US,,,,Privé - Réservé au gouvernement,,private,GOVERNMENT,,STATE_GOV,,,,,,,,,,,,,,,,,
BD,Stokes County - North Carolina DOT,NC-8 & NC-89,6 miles N. of Walnut Cove at Stokes County Prison Camp,Walnut Cove,NC,27052,,,E,,Private - Government only,,,B20,,,,,,,,,GPS,36.372989,-80.185392,4/6/2022,34709,2022-04-06 14:08:04 UTC,SG,,,1/1/2009,,,,,,US,,,,Privé - Réservé au gouvernement,,private,GOVERNMENT,,STATE_GOV,,,,,,,,,,,,,,,,,
BD,Beaufort County - North Carolina DOT,803 Grimes Rd,"SR1402; opposite intersection of SR 1402 & SR 1430, 0.6 miles NW of Washington",Washington,NC,27889,,,E,,Private - Government only,,,B20,,,,,,,,,200-8,35.566476,-77.07863,4/6/2022,34710,2022-04-06 14:08:04 UTC,SG,,,1/1/2009,,,,,,US,,,,Privé - Réservé au gouvernement,,private,GOVERNMENT,,STATE_GOV,,,,,,,,,,,,,,,,,
BD,Haywood County - North Carolina DOT,Paragon Pkwy,SR1646; off US 19/23 at Lake Junaluska,Waynesville,NC,28721,,,E,,Private - Government only,,,B20,,,,,,,,,GPS,35.5289,-82.947628,4/6/2022,34711,2022-04-06 14:08:04 UTC,SG,,,1/1/2009,,,,,,US,,,,Privé - Réservé au gouvernement,,private,GOVERNMENT,,STATE_GOV,,,,,,,,,,,,,,,,,
BD,Rockingham County - North Carolina DOT,NC-87 & NC-65,1.5 miles E. of Wentworth,Wentworth,NC,27320,,,E,,Private - Government only,,,B20,,,,,,,,,GPS,36.389728,-79.747456,4/6/2022,34712,2022-04-06 14:08:04 UTC,SG,,,1/1/2009,,,,,,US,,,,Privé - Réservé au gouvernement,,private,GOVERNMENT,,STATE_GOV,,,,,,,,,,,,,,,,,
BD,Ashe County - North Carolina DOT,SR-1131,2.75 miles N of Jefferson off of NC 88,West Jefferson,NC,27406,,,E,,Private - Government only,,,B20,,,,,,,,,GPS,36.431078,-81.515011,4/6/2022,34713,2022-04-06 14:08:04 UTC,SG,,,1/1/2009,,,,,,US,,,,Privé - Réservé au gouvernement,,private,GOVERNMENT,,STATE_GOV,,,,,,,,,,,,,,,,,
BD,Martin County - North Carolina DOT,Prison Camp Rd,NC 125; 1.3 miles from Williamston City Limits; 0.6 miles from US 64,Williamston,NC,27892,,,E,,Private - Government only,,,B20,,,,,,,,,GPS,35.832383,-77.095331,4/6/2022,34714,2022-04-06 14:08:04 UTC,SG,,,1/1/2009,,,,,,US,,,,Privé - Réservé au gouvernement,,private,GOVERNMENT,,STATE_GOV,,,,,,,,,,,,,,,,,
BD,Martin County - North Carolina DOT,US-64,1 mile outside of Williamston headed toward Plymouth,Williamston,NC,27892,,,E,,Private - Government only,,,B20,,,,,,,,,GPS,35.830186,-77.034778,4/6/2022,34715,2022-04-06 14:08:04 UTC,SG,,,1/1/2009,,,,,,US,,,,Privé - Réservé au gouvernement,,private,GOVERNMENT,,STATE_GOV,,,,,,,,,,,,,,,,,
BD,Wilson County - North Carolina DOT,Ward Blvd,US 264; 1 miles S of US 264 & NC 42B intersection,Wilson,NC,27896,,,E,,Private - Government only,,,B20,,,,,,,,,GPS,35.708869,-77.930264,4/6/2022,34716,2022-04-06 14:08:04 UTC,SG,,,1/1/2009,,,,,,US,,,,Privé - Réservé au gouvernement,,private,GOVERNMENT,,STATE_GOV,,,,,,,,,,,,,,,,,
BD,Bertie County - North Carolina DOT,120 Powell Rd & Stokes Rd,SR 1227; 0.2 miles W of US 13 & SR 1227 intersection,Windsor,NC,27983,,,E,,Private - Government only,,,B20,,,,,,,,,GPS,36.016833,-76.958706,4/6/2022,34717,2022-04-06 14:08:04 UTC,SG,,,1/1/2009,,,,,,US,,,,Privé - Réservé au gouvernement,,private,GOVERNMENT,,STATE_GOV,,,,,,,,,,,,,,,,,
BD,Yadkin County - North Carolina DOT,US-601,1.5 miles E. of US 601,Yadkinville,NC,27055,,,E,,Private - Government only,,,B20,,,,,,,,,GPS,36.122703,-80.633596,4/6/2022,34719,2022-04-06 14:08:04 UTC,SG,,,1/1/2009,,,,,,US,,,,Privé - Réservé au gouvernement,,private,GOVERNMENT,,STATE_GOV,,,,,,,,,,,,,,,,,
BD,Caswell County - North Carolina DOT,NC-1572,1 miles N. of Yanceyville; off NC 86,Yanceyville,NC,27370,,,E,,Private - Government only,,,B20,,,,,,,,,GPS,36.417047,-79.341608,4/6/2022,34720,2022-04-06 14:08:04 UTC,SG,,,1/1/2009,,,,,,US,,,,Privé - Réservé au gouvernement,,private,GOVERNMENT,,STATE_GOV,,,,,,,,,,,,,,,,,
BD,Maine Standard Biofuels,51 Ingersoll Dr,,Portland,ME,4103,,207-878-3001,E,,Public,8am-5pm M-F; open upon request outside business hours,Cash Checks M V,B99,,,,,,,,,200-9,43.691658,-70.328136,4/6/2022,35010,2022-04-06 14:08:04 UTC,P,,,9/1/2009,,,,,,US,,,,Public,,public,,,FUEL_RESELLER,,,,,,,,,,,,,,,,,FALSE
BD,National Zoological Park - Smithsonian,3001 Connecticut Ave NW,,Washington,DC,20008,,,E,,Private - Government only,,,B20,,,,,,,,,GPS,38.93095,-77.047125,7/12/2022,35215,2022-07-12 20:31:42 UTC,FG,23,Smithsonian Institution,6/15/2010,,,,,,US,,,,Privé - Réservé au gouvernement,,private,GOVERNMENT,SI,NATL_PARK,,,,,,,,,,,,,,,,,
BD,Little Rock Air Force Base,300 S Spring St,,Little Rock AFB,AR,72099,,,E,,Private - Government only,Also accepts paying arrangement made with station manager,Wright_Exp,B20,,,,,,,,,200-9,34.746699,-92.274891,7/12/2022,35217,2022-07-12 20:31:42 UTC,FG,5,Department of Air Force,3/15/2009,,,,,,US,,,,Privé - Réservé au gouvernement,,private,GOVERNMENT,DAF,MIL_BASE,,,,,,,,,,,,,,,,,
BD,Marine Corps Logistic Base - Albany,814 Radford Blvd,,Albany,GA,31704,,,E,,Private - Government only,,,B20,,,,,,,,,GPS,31.551225,-84.066879,7/12/2022,35324,2022-07-12 20:31:42 UTC,FG,26,United States Marine Corps,7/1/2009,,,,,,US,,,,Privé - Réservé au gouvernement,,private,GOVERNMENT,USMC,MIL_BASE,,,,,,,,,,,,,,,,,
BD,Columbus Air Force Base,325 Simler Blvd,,Columbus AFB,MS,39705,,,E,,Private - Government only,Also accepts paying arrangement made with station manager,Wright_Exp,B20,,,,,,,,,GPS,33.63414,-88.449932,7/12/2022,35327,2022-07-12 20:31:42 UTC,FG,5,Department of Air Force,7/1/2009,,,,,,US,,,,Privé - Réservé au gouvernement,,private,GOVERNMENT,DAF,MIL_BASE,,,,,,,,,,,,,,,,,
BD,Beaumont Federal Correctional Complex,5980 Knauth Rd,,Beaumont,TX,77705,,,E,,Private,DOJ fleet use only,,B20,,,,,,,,,GPS,29.964886,-94.079415,7/12/2022,35332,2022-07-12 20:31:42 UTC,FG,12,Department of Justice,7/1/2009,,,,,,US,,,,Privé,,private,,DOJ,PRISON,,,,,,,,,,,,,,,,,
BD,Goodfellow Air Force Base,371 Fort Lancaster Ave,,Goodfellow AFB,TX,76908,,,E,,Private - Government only,Also accepts paying arrangement made with station manager,Wright_Exp,B20,,,,,,,,,GPS,31.4345622,-100.4129099,7/12/2022,35334,2022-07-12 20:31:42 UTC,FG,5,Department of Air Force,7/1/2009,,,,,,US,,,,Privé - Réservé au gouvernement,,private,GOVERNMENT,DAF,MIL_BASE,,,,,,,,,,,,,,,,,
BD,Jubitz Travel Center - Pacific Pride,10210 N Vancouver Way,,Portland,OR,97217,,503-283-1111,E,,Public,24 hours daily,A Cash D M PacificPride V,"B20, B5",,,,,,,,,200-9,45.597393,-122.669926,5/5/2022,35510,2022-05-05 20:22:04 UTC,P,,,5/15/2007,,,,,,US,,,,Public,,public,,,TRAVEL_CENTER,,,,,,,,,,,,,,,,,FALSE
BD,Pilot Travel Center #114,2449 Genesis Rd,"I-40, Exit 172",Crossville,TN,38571,,931-787-1901,E,,Public - Credit card at all times,24 hours daily,A Cash D M V Voyager Wright_Exp,B20,,,,,,,,,200-9,35.9859,-85.012878,9/14/2022,35517,2022-09-14 15:49:44 UTC,P,,,3/1/2010,,,,,,US,,,,Public - Carte de crédit en tout temps,,public,CREDIT_CARD_ALWAYS,,TRAVEL_CENTER,,,,,,,,,,,,,,,,,FALSE
BD,Sigourney BP - Cobb Oil,805 E Jackson St,,Sigourney,IA,52591,,319-694-2203,E,,Public,5am-10pm daily,A Cash Checks D M V Voyager Wright_Exp,B20 in summer,,,,,,,,,200-9,41.336467,-92.196155,6/14/2022,35630,2022-06-14 16:22:30 UTC,P,,,4/15/2010,,,,,,US,,,,Public,,public,,,CONVENIENCE_STORE,,,,,,,,,,,,,,,,,FALSE
BD,Pearson Fuels - Silvas Oil Co Inc,6417 Ventura Blvd,,Ventura,CA,93003,,805-288-5477,E,,Public - Credit card at all times,24 hours daily,A CFN D FuelMan M V Voyager Wright_Exp,B20,,,,,,,,,200-9,34.248013,-119.199978,8/10/2022,35647,2022-08-10 13:32:10 UTC,P,,,4/1/2010,,,,,,US,,,,Public - Carte de crédit en tout temps,,public,CREDIT_CARD_ALWAYS,,CONVENIENCE_STORE,,,,,,,,,,,,,,,,,FALSE
BD,Heritage Co-op,304 Bloomfield Ave,,Urbana,OH,43078,,937-652-2135  800-424-2584,E,,Public - Credit card after hours,7:30am-4:30pm M-F,A Cash D M V Voyager Wright_Exp,B20,,,,,,,,,200-9,40.119762,-83.746956,5/5/2022,36556,2022-05-05 20:22:04 UTC,P,,,10/15/2008,,,,,,US,,,,Public - Carte de crédit après les heures d'ouverture,,public,CREDIT_CARD_AFTER_HOURS,,GAS_STATION,,,,,,,,,,,,,,,,,FALSE
BD,Norwich Public Utilities,16 S Golden St,"Route 395, exit 83, follow Route 975 to Route 12 S",Norwich,CT,6360,,,E,,Private,,,"B20, B5",,,,,,,,,200-9,41.526802,-72.063684,4/6/2022,37615,2022-04-06 14:08:04 UTC,T,,,4/15/1997,,,,,,US,,,,Privé,,private,,,UTILITY,,,,,,,,,,,,,,,,,
BD,Marine Corps Blount Island Command,5886 Gateco Blvd,,Jacksonville,FL,32226,,,E,,Private,DOD fleet use only,,B20,,,,,,,,,GPS,30.404351,-81.523919,7/12/2022,38043,2022-07-12 20:31:42 UTC,FG,26,United States Marine Corps,6/15/2010,,,,,,US,,,,Privé,,private,,USMC,MIL_BASE,,,,,,,,,,,,,,,,,
BD,Pacific Biodiesel Inc - Burt's Service,1342 N School St,,Honolulu,HI,96817,,808-841-6711,E,,Public,"6am-10:30pm M-Sat, 7am-10pm Sun",A Cash D M V Wright_Exp,"B20, any blend up to B20 available",,,,,,,,,200-9,21.332067,-157.865972,9/14/2022,38045,2022-09-14 15:49:44 UTC,P,,,9/30/2009,,,,,,US,,,,Public,,public,,,GAS_STATION,,,,,,,,,,,,,,,,,FALSE
BD,National Grid - Bellmore,2400 Sunrise Hwy,,Bellmore,NY,11710,,,E,,Private,,,B20,,,,,,,,,200-8,40.665994,-73.538672,10/12/2021,38561,2022-02-25 20:48:59 UTC,P,,,12/31/2009,,,,,,US,,,,Privé,,private,,,UTILITY,,,,,,,,,,,,,,,,,
BD,National Grid - Greenlawn,288 Pulaski Rd,,Greenlawn,NY,11740,,,E,,Private,,,B20,,,,,,,,,200-8,40.858225,-73.386115,10/12/2021,38563,2022-02-25 20:48:59 UTC,P,,,12/31/2009,,,,,,US,,,,Privé,,private,,,UTILITY,,,,,,,,,,,,,,,,,
BD,National Grid - Patchogue,460 E Main St,,Patchogue,NY,11772,,,E,,Private,,,B20,,,,,,,,,200-8,40.766924,-72.997863,10/12/2021,38564,2022-02-25 20:48:59 UTC,P,,,12/31/2009,,,,,,US,,,,Privé,,private,,,UTILITY,,,,,,,,,,,,,,,,,
BD,National Grid - Hicksville,175 E Old Country Rd,,Hicksville,NY,11801,,,E,,Private,,,B20,,,,,,,,,200-8,40.766992,-73.509655,10/12/2021,38565,2022-02-25 20:48:59 UTC,P,,,12/31/2009,,,,,,US,,,,Privé,,private,,,UTILITY,,,,,,,,,,,,,,,,,
BD,Flying J Travel Center,12334 Ehlen Rd NE,,Aurora,OR,97002,,503-678-1262,E,,Public,24 hours daily,A Cash CFN Checks D M V Voyager Wright_Exp,"B20, B5",,,,,,,,,200-9,45.233104,-122.809847,4/6/2022,39181,2022-04-06 14:08:04 UTC,P,,,3/22/2019,,,,,,US,,,,Public,,public,,,TRAVEL_CENTER,,,,,,,,,,,,,,,,,FALSE
BD,Hoyt Oil & Convenience Sinclair,241 6th St,Highway 14 and 6th St,Walnut Grove,MN,56180,,507-859-2552,E,,Public,7am-9pm daily,A Cash Checks D M V Voyager Wright_Exp,"B20 in summer, B5 in winter",,,,,,,,,200-9,44.225354,-95.46997,4/6/2022,40174,2022-04-06 14:08:04 UTC,P,,,4/15/2019,,,,,,US,,,,Public,,public,,,CONVENIENCE_STORE,,,,,,,,,,,,,,,,,FALSE
BD,Quickway Market,690 NE Butler Market Rd,,Bend,OR,97701,,541-383-2288,E,,Public,24 hours daily,A Cash D M V Voyager Wright_Exp,"B99 in summer, B20",,,,,,,,,200-9,44.076561,-121.295688,4/6/2022,40621,2022-04-06 14:08:04 UTC,P,,,7/1/2011,,,,,,US,,,,Public,,public,,,CONVENIENCE_STORE,,,,,,,,,,,,,,,,,FALSE
BD,Scott Air Force Base,4429 Samuel Adams Cir,,Scott AFB,IL,62225,,,E,,Private - Government only,Also accepts paying arrangement made with station manager,Wright_Exp,B20,,,,,,,,,GPS,38.529476,-89.868113,7/12/2022,41656,2022-07-12 20:31:42 UTC,FG,5,Department of Air Force,8/15/2006,,,,,,US,,,,Privé - Réservé au gouvernement,,private,GOVERNMENT,DAF,MIL_BASE,,,,,,,,,,,,,,,,,
BD,Scott Air National Guard,2101 Golf Course Rd,,Scott AFB,IL,62225,,,E,,Private - Government only,Also accepts paying arrangement made with station manager,Wright_Exp,B20,,,,,,,,,GPS,38.548554,-89.850902,7/12/2022,41657,2022-07-12 20:31:42 UTC,FG,5,Department of Air Force,1/15/2011,,,,,,US,,,,Privé - Réservé au gouvernement,,private,GOVERNMENT,DAF,MIL_BASE,,,,,,,,,,,,,,,,,
BD,Smithsonian Conservation Research Center,1500 Remount Rd,,Front Royal,VA,22630,,,E,,Private - Government only,,,B20,,,,,,,,,200-8,38.897429,-78.180946,7/12/2022,41667,2022-07-12 20:31:42 UTC,FG,23,Smithsonian Institution,1/15/2011,,,,,,US,,,,Privé - Réservé au gouvernement,,private,GOVERNMENT,SI,RESEARCH_FACILITY,,,,,,,,,,,,,,,,,
BD,Naval Base Kitsap - Bremerton,1400 Farragut Ave,,Bremerton,WA,98314,,,E,,Private - Government only,,,B20,,,,,,,,,GPS,47.561819,-122.647197,7/12/2022,41668,2022-07-12 20:31:42 UTC,FG,14,Department of Navy,3/15/2011,,,,,,US,,,,Privé - Réservé au gouvernement,,private,GOVERNMENT,DON,MIL_BASE,,,,,,,,,,,,,,,,,
BD,East Side Travel Plaza,607 Gateway Dr NE,,East Grand Forks,MN,56721,,218-773-4345,E,,Public,5am-10pm daily,A Cash Checks D M V,"B20 in summer, B5 in winter",,,,,,,,,200-9,47.937616,-97.011017,4/6/2022,42479,2022-04-06 14:08:04 UTC,P,,,12/31/2008,,,,,,US,,,,Public,,public,,,TRAVEL_CENTER,,,,,,,,,,,,,,,,,FALSE
BD,City of Denton,1521 S Mayhill Rd,Mayhill & Spencer Roads,Denton,TX,76208,,,E,,Private,24 hours daily,,"B20, B10",,,,,,,,,200-8,33.192607,-97.084959,5/5/2022,42579,2022-05-05 20:22:04 UTC,LG,,,3/8/2011,,,,,,US,,,,Privé,,private,,,MUNI_GOV,,,,,,,,,,,,,,,,,
BD,Tyree Oil - SeQuential Biofuels,1355 W 1st Ave,"Exit at I-105, west on 6th Ave, 3.5 blocks north on Blair Blvd, 0.25 block to 1st Ave",Eugene,OR,97402,,541-687-0076,E,,Public - Card key at all times,24 hours daily; cardlock application available at https://sqbiofuels.com,CFN,"B99, B20, B5",,,,,,,,,200-9,44.059103,-123.11358,5/5/2022,43620,2022-05-05 20:22:04 UTC,P,,,2/15/2017,,,,,,US,,,,Public - Carte-clé en tout temps,,public,KEY_ALWAYS,,CONVENIENCE_STORE,,,,,,,,,,,,,,,,,FALSE
BD,City of Southlake - Department of Public Safety,2100 W Southlake Blvd,,Southlake,TX,76092,,,E,,Private - Government only,24 hours daily,,B20,,,,,,,,,200-9,32.939323,-97.184629,5/5/2022,44836,2022-05-05 20:22:04 UTC,LG,,,12/31/2012,,,,,,US,,,,Privé - Réservé au gouvernement,,private,GOVERNMENT,,MUNI_GOV,,,,,,,,,,,,,,,,,
BD,Evergreen State Fairgrounds Station,14405 179th Ave SE,,Monroe,WA,98272,,,E,,Private,,,B20,,,,,,,,,200-9,47.868914,-121.987449,9/14/2022,44838,2022-09-14 15:49:44 UTC,LG,,,11/1/2011,,,,,,US,,,,Privé,,private,,,MUNI_GOV,,,,,,,,,,,,,,,,,
BD,Cobb Oil Key Troll,2190 250th St,,Washington,IA,52353,,319-694-2200,E,,Public - Card key at all times,24 hours daily; contact station to arrange for card key,,B20 in summer,,,,,,,,,200-9,41.295254,-91.718236,7/12/2022,46335,2022-07-12 20:31:42 UTC,P,,,6/15/2007,,,,,,US,,,,Public - Carte-clé en tout temps,,public,KEY_ALWAYS,,STANDALONE_STATION,,,,,,,,,,,,,,,,,FALSE
BD,Village of Downers Grove,5101 Walnut Ave,Walnut Ave and Curtis St.,Downers Grove,IL,60515,,,E,,Private - Government only,Call 630-434-5509 to set up fueling account,,B20,,,,,,,,,200-9,41.793467,-88.051732,12/9/2021,47263,2022-11-07 16:39:01 UTC,LG,,,1/1/2001,,,,,,US,,,,Privé - Réservé au gouvernement,,private,GOVERNMENT,,MUNI_GOV,,,,,,,,,,,,,,,,,
BD,Argonne National Laboratory,9700 S. Cass Avenue,,Lemont,IL,60439,,,E,,Private,DOE fleet use only,,B20,,,,,,,,,GPS,41.71298,-87.960781,7/12/2022,47264,2022-07-12 20:31:42 UTC,FG,8,U.S. Department of Energy,5/15/2012,,,,,,US,,,,Privé,,private,,DOE,RESEARCH_FACILITY,,,,,,,,,,,,,,,,,
BD,City of Southlake - Department of Public Works,1950 E Continental Blvd,,Southlake,TX,76092,,,E,,Private - Government only,24 hours daily,,B20,,,,,,,,,200-9,32.928169,-97.120455,5/5/2022,47270,2022-05-05 20:22:04 UTC,LG,,,12/31/2012,,,,,,US,,,,Privé - Réservé au gouvernement,,private,GOVERNMENT,,MUNI_GOV,,,,,,,,,,,,,,,,,
BD,Forest Preserve District of DuPage County,881 W St Charles Rd,,Lombard,IL,60148,,,E,,Private - Government only,,,"B20 in summer, B11 in winter",,,,,,,,,200-9,41.890853,-88.039553,10/11/2022,47466,2022-10-11 18:56:12 UTC,LG,,,6/21/2012,,,,,,US,,,,Privé - Réservé au gouvernement,,private,GOVERNMENT,,MUNI_GOV,,,,,,,,,,,,,,,,,
BD,Applebee Oil & Propane,108 Mill St,,Ovid,MI,48866,,989-834-2828,E,,Public,"8am-5pm M-F, 8am-12pm Sat",A Cash D M V,B20,,,,,,,,,200-9,43.005477,-84.375601,6/14/2022,47977,2022-06-14 16:22:30 UTC,P,,,1/15/2010,,,,,,US,,,,Public,,public,,,FUEL_RESELLER,,,,,,,,,,,,,,,,,FALSE
BD,Applebee Oil & Propane,603 E Steel St,,St. Johns,MI,48879,,989-834-2828,E,,Public,"8am-5pm M-F, 8am-12pm Sat",A Cash D M V,B20,,,,,,,,,200-9,43.006709,-84.549867,6/14/2022,47978,2022-06-14 16:22:30 UTC,P,,,4/15/2019,,,,,,US,,,,Public,,public,,,FUEL_RESELLER,,,,,,,,,,,,,,,,,FALSE
BD,Ontario CNG - 76,1850 E Holt Blvd,,Ontario,CA,91761,,909-467-1809,E,,Public - Credit card at all times,24 hours daily; Also accepts Propel CleanDrive fleet card,A D FuelMan M Proprietor V Voyager Wright_Exp,B20,,,,,,,,,200-9,34.063139,-117.61148,8/10/2022,47982,2022-08-10 13:32:10 UTC,P,,,4/15/2018,,,,,,US,,,,Public - Carte de crédit en tout temps,,public,CREDIT_CARD_ALWAYS,,CONVENIENCE_STORE,,,,,,,,,,,,,,,,,FALSE
BD,Dateland Travel Center,1737 S Avenue 64 E,Interstate 8 at Mile Marker 67,Dateland,AZ,85333,,928-454-2772,E,,Public - Credit card at all times,24 hours daily; Also accepts FleetWide cards,A Cash D FleetOne FuelMan M V Voyager Wright_Exp,B20,,,,,,,,,GPS,32.807383,-113.541906,11/4/2021,47990,2022-10-12 19:52:55 UTC,P,,,4/9/2009,,,,,,US,,,,Public - Carte de crédit en tout temps,,public,CREDIT_CARD_ALWAYS,,TRAVEL_CENTER,,,,,,,,,,,,,,,,,FALSE
BD,Hans Foreign Car Repair,6302 35th Ave SW,,Seattle,WA,98126,,206-932-5552,E,,Public,8am-6pm M-F,A Cash Checks D M V,B99,,,,,,,,,200-9,47.5462,-122.376039,6/14/2022,48431,2022-06-14 16:22:30 UTC,P,,,1/15/2006,,,,,,US,,,,Public,,public,,,GAS_STATION,,,,,,,,,,,,,,,,,FALSE
BD,City of Phoenix - Union Hills Service Center,138 E Union Hills Rd,,Phoenix,AZ,85022,,,E,,Private - Government only,,,B20,,,,,,,,,GPS,33.6549303,-112.0755517,4/6/2022,48438,2022-04-06 14:08:04 UTC,LG,,,12/28/2011,,,,,,US,,,,Privé - Réservé au gouvernement,,private,GOVERNMENT,,MUNI_GOV,,,,,,,,,,,,,,,,,
BD,City of Phoenix - Salt River Service Center,3045 S 22nd Ave,,Phoenix,AZ,85015,,,E,,Private - Government only,,,B20,,,,,,,,,200-8,33.41957,-112.105877,4/6/2022,48439,2022-04-06 14:08:04 UTC,LG,,,9/1/2020,,,,,,US,,,,Privé - Réservé au gouvernement,,private,GOVERNMENT,,MUNI_GOV,,,,,,,,,,,,,,,,,
BD,City of Phoenix - 52nd St Water Yard,5204 E Thomas Rd,,Phoenix,AZ,85018,,,E,,Private - Government only,,,B20,,,,,,,,,200-8,33.480048,-111.969478,4/6/2022,48442,2022-04-06 14:08:04 UTC,LG,,,12/28/2011,,,,,,US,,,,Privé - Réservé au gouvernement,,private,GOVERNMENT,,MUNI_GOV,,,,,,,,,,,,,,,,,
BD,City of Phoenix - Fire Operations,150 S 12th St,,Phoenix,AZ,85034,,,E,,Private - Government only,,,B20,,,,,,,,,200-9,33.445723,-112.057707,4/6/2022,48443,2022-04-06 14:08:04 UTC,LG,,,12/28/2011,,,,,,US,,,,Privé - Réservé au gouvernement,,private,GOVERNMENT,,FIRE_STATION,,,,,,,,,,,,,,,,,
BD,Space Station Gas,644 Lincoln Ave,,Steamboat Springs,CO,80487,,970-879-1811,E,,Public - Credit card after hours,6am-11pm daily,A Cash Checks D M V,B20,,,,,,,,,200-8,40.485303,-106.832843,12/9/2021,48453,2022-10-12 20:50:18 UTC,P,,,6/1/2012,,,,,,US,,,,Public - Carte de crédit après les heures d'ouverture,,public,CREDIT_CARD_AFTER_HOURS,,CONVENIENCE_STORE,,,,,,,,,,,,,,,,,FALSE
BD,CountryMark - North Central Co-op,2929 Peddler Village Rd,,Goshen,IN,46526,,574-533-4131,E,,Public - Credit card at all times,24 hours daily; Also accepts FleetWide,A CFN D Debit M Proprietor V Wright_Exp,B20,,,,,,,,,200-9,41.609224,-85.885312,10/12/2021,48457,2022-10-24 18:54:53 UTC,P,,,6/15/2006,,,,,,US,,,,Public - Carte de crédit en tout temps,,public,CREDIT_CARD_ALWAYS,,COOP,,,,,,,,,,,,,,,,,FALSE
BD,Grissom Air Reserve Base,7207 Grissom Ave,,Grissom Joint Air Reserve Base,IN,46971,,,E,,Private - Government only,,,B20,,,,,,,,,200-8,40.661973,-86.141854,7/12/2022,48458,2022-07-12 20:31:42 UTC,FG,5,Department of Air Force,8/1/2012,,,,,,US,,,,Privé - Réservé au gouvernement,,private,GOVERNMENT,DAF,MIL_BASE,,,,,,,,,,,,,,,,,
BD,Brookhaven National Laboratory B-20,Temple Pl,639,Upton,NY,11973,,,E,,Private - Government only,Contact station to make fueling arrangements,,B20,,,,,,,,,GPS,40.868691,-72.873968,7/12/2022,48471,2022-07-12 20:31:42 UTC,FG,8,U.S. Department of Energy,8/1/2012,,,,,,US,,,,Privé - Réservé au gouvernement,,private,GOVERNMENT,DOE,RESEARCH_FACILITY,,,,,,,,,,,,,,,,,
BD,Youngstown Air Reserve Station,3976 King Graves Rd,,Vienna,OH,44473,,,E,,Private - Government only,Also accepts paying arrangement made with station manager,Wright_Exp,B20,,,,,,,,,200-8,41.271561,-80.676365,7/12/2022,48474,2022-07-12 20:31:42 UTC,FG,5,Department of Air Force,8/1/2012,,,,,,US,,,,Privé - Réservé au gouvernement,,private,GOVERNMENT,DAF,MIL_BASE,,,,,,,,,,,,,,,,,
BD,Mansfield Lahm Regional Airport,1947 Harrington Memorial Rd,,Mansfield,OH,44903,,,E,,Private - Government only,Also accepts paying arrangement made with station manager,Wright_Exp,B20,,,,,,,,,200-8,40.814356,-82.513115,7/12/2022,48475,2022-07-12 20:31:42 UTC,FG,5,Department of Air Force,8/1/2012,,,,,,US,,,,Privé - Réservé au gouvernement,,private,GOVERNMENT,DAF,MIL_BASE,,,,,,,,,,,,,,,,,
BD,SeQuential Biofuels,1409 N Highway 99,,Ashland,OR,97520,,541-727-7350,E,,Public,24 hours daily,Cash D M V,"B99, B20, B5",,,,,,,,,200-8,42.216882,-122.733704,1/10/2022,48477,2022-03-23 20:24:06 UTC,P,,,8/15/2009,,,,,,US,,,,Public,,public,,,STANDALONE_STATION,,,,,,,,,,,,,,,,,FALSE
BD,Fairchild Air Force Base,7 W Arnold Ave,,Fairchild AFB,WA,99011,,,E,,Private - Government only,,,B20,,,,,,,,,GPS,47.630788,-117.643483,7/12/2022,48486,2022-07-12 20:31:42 UTC,FG,5,Department of Air Force,8/1/2012,,,,,,US,,,,Privé - Réservé au gouvernement,,private,GOVERNMENT,DAF,MIL_BASE,,,,,,,,,,,,,,,,,
BD,Pacific Pride - Ira Phillips Inc,310 N 3rd St,,Gadsden,AL,35901,,256-547-0591,E,,Public - Card key at all times,24 hours daily; contact station to arrange for card key,Comdata FleetOne PacificPride TCH Tchek Voyager,B20,,,,,,,,,200-9,34.016352,-85.999972,8/10/2022,48891,2022-08-10 13:32:10 UTC,P,,,7/20/2012,,,,,,US,,,,Public - Carte-clé en tout temps,,public,KEY_ALWAYS,,STANDALONE_STATION,,,,,,,,,,,,,,,,,FALSE
BD,Mirabito Travel Center,1166 Castle Creek Rd,,Castle Creek,NY,13744,,607-648-4425,E,,Public,24 hours daily,A Cash CFN Checks D FuelMan GasCard M PHH V Voyager Wright_Exp,B20,,,,,,,,,200-9,42.231607,-75.916744,3/7/2022,48893,2022-03-07 19:49:53 UTC,P,,,6/15/2010,,,,,,US,,,,Public,,public,,,TRAVEL_CENTER,,,,,,,,,,,,,,,,,FALSE
BD,Interstate Oil Co,183 W Main St,At W Main St and Cottonwood St,Woodland,CA,95695,,530-662-5481,T,1/15/2023,TEMPORARILY UNAVAILABLE (Public - Credit card after hours),8am-5pm daily; station manager must unlock pump if paying with cash,A Cash Comdata D M PacificPride V Voyager Wright_Exp,B99,,,,,,,,,200-9,38.677078,-121.792715,7/12/2022,49273,2022-07-12 20:31:42 UTC,P,,,1/15/2009,,,,,,US,,,,TEMPORAIREMENT SUSPENDU (Public - Carte de crédit après les heures d'ouverture),,public,CREDIT_CARD_AFTER_HOURS,,GAS_STATION,,,,,,,,,,,,,,,,,FALSE
BD,City of Boulder Fleet Services,5064 Pearl St,,Boulder,CO,80301,,,E,,Private - Government only,,,"B20 in summer, B10 in winter",,,,,,,,,200-8,40.025907,-105.234548,12/9/2021,49277,2022-10-12 19:42:33 UTC,LG,,,1/15/2005,,,,,,US,,,,Privé - Réservé au gouvernement,,private,GOVERNMENT,,MUNI_GOV,,,,,,,,,,,,,,,,,
BD,Staples Oil Expressway,261 10th St,,Heron Lake,MN,56137,,507-793-7400,E,,Public - Credit card after hours,6am-11pm daily,A Cash Checks D FuelMan GasCard M V Voyager Wright_Exp,"B50, B30, B20, B5, custom blends",,,,,,,,,GPS,43.79788545,-95.32302131,4/6/2022,50642,2022-04-06 14:08:04 UTC,P,,,12/31/2012,,,,,,US,,,,Public - Carte de crédit après les heures d'ouverture,,public,CREDIT_CARD_AFTER_HOURS,,CONVENIENCE_STORE,,,,,,,,,,,,,,,,,FALSE
BD,Big Island Biodiesel - Keaau,16-240 Mikahala St,,Keaau,HI,96749,,808-494-9366,E,,Public - Credit card after hours,"9am-2pm M, W, F",A Cash Checks D M V,"B100, B20",,,,,,,,,200-9,19.632922,-155.05369,9/10/2021,51592,2022-11-04 20:41:54 UTC,P,,,1/15/2013,,,,,,US,,,,Public - Carte de crédit après les heures d'ouverture,,public,CREDIT_CARD_AFTER_HOURS,,FUEL_RESELLER,,,,,,,,,,,,,,,,,FALSE
BD,Al Parsch Oil & Propane Co,5923 W Imlay City Rd,At Summer Rd,Imlay City,MI,48444,,810-724-6425,E,,Public - Card key at all times,"8am-5pm M-F, 8am-12pm Sat; contact station for access card",Cash D M V,"B20 in summer, B5 in winter",,,,,,,,,200-9,43.050163,-83.111736,6/14/2022,52171,2022-06-14 16:22:30 UTC,P,,,1/15/2008,,,,,,US,,,,Public - Carte-clé en tout temps,,public,KEY_ALWAYS,,FUEL_RESELLER,,,,,,,,,,,,,,,,,FALSE
BD,Marine Corps Logistics Base - Barstow - Yermo Annex,F St,,Barstow,CA,92311,,,E,,Private - Government only,,,B20,,,,,,,,,GPS,34.874372,-116.951153,7/12/2022,52415,2022-07-12 20:31:42 UTC,FG,26,United States Marine Corps,6/30/2013,,,,,,US,,,,Privé - Réservé au gouvernement,,private,GOVERNMENT,USMC,MIL_BASE,,,,,,,,,,,,,,,,,
BD,National Grid - Watertown,21265 New York 232,,Watertown,NY,13601,,,E,,Private,,,"B20 in summer, B5 in winter",,,,,,,,,200-9,43.92808,-75.947296,11/4/2021,52970,2022-02-25 20:48:59 UTC,P,,,9/15/2013,,,,,,US,,,,Privé,,private,,,UTILITY,,,,,,,,,,,,,,,,,
BD,National Grid - Middletown,12 Turner Rd,,Middletown,RI,2842,,,E,,Private,,,"B20 in summer, B5 in winter",,,,,,,,,200-9,41.525557,-71.274952,2/10/2022,52972,2022-11-05 18:48:19 UTC,P,,,9/15/2013,,,,,,US,,,,Privé,,private,,,UTILITY,,,,,,,,,,,,,,,,,
BD,National Grid - Greenpoint,287 Maspeth Ave,,Greenpoint,NY,11211,,,E,,Private,,,B20,,,,,,,,,GPS,40.718053,-73.931508,9/10/2021,52974,2022-02-25 20:48:59 UTC,P,,,9/15/2013,,,,,,US,,,,Privé,,private,,,UTILITY,,,,,,,,,,,,,,,,,
BD,National Grid - Beacon North,7496 Round Pond Rd,,Syracuse,NY,13212,,,E,,Private,,,"B20 in summer, B5 in winter",,,,,,,,,200-9,43.135479,-76.087402,7/14/2021,52975,2022-02-25 20:48:59 UTC,P,,,9/15/2013,,,,,,US,,,,Privé,,private,,,UTILITY,,,,,,,,,,,,,,,,,
BD,Monroe County Regional Transportation - FEV Green Fuel Station,1574 Lakeshore Blvd,,Rochester,NY,14617,,,E,,Private - Government only,,,"B20 in summer, B5 in winter",,,,,,,,,200-8,43.239997,-77.57094,7/12/2022,52977,2022-07-12 20:31:42 UTC,LG,,,9/13/2013,,,,,,US,,,,Privé - Réservé au gouvernement,,private,GOVERNMENT,,MUNI_GOV,,,,,,,,,,,,,,,,,
BD,National Grid - Roslyn,250 Willis Ave,,Roslyn,NY,11577,,,E,,Private,,,B20,,,,,,,,,GPS,40.7478941,-73.6403215,11/4/2021,52979,2022-02-25 20:48:59 UTC,P,,,12/31/2009,,,,,,US,,,,Privé,,private,,,UTILITY,,,,,,,,,,,,,,,,,
BD,National Grid - Providence,280 Melrose St,,Providence,RI,2907,,,E,,Private,,,"B20 in summer, B5 in winter",,,,,,,,,200-9,41.79183,-71.418156,12/9/2021,52983,2022-02-25 20:48:59 UTC,P,,,9/15/2013,,,,,,US,,,,Privé,,private,,,UTILITY,,,,,,,,,,,,,,,,,
BD,City of Phoenix - Fire Station #7,403 E Hatcher,,Phoenix,AZ,85020,,,E,,Private,,,B20,,,,,,,,,200-9,33.570958,-112.068142,4/6/2022,53237,2022-04-06 14:08:04 UTC,LG,,,1/1/2008,,,,,,US,,,,Privé,,private,,,FIRE_STATION,,,,,,,,,,,,,,,,,
BD,City of Phoenix - Fire Station #72,33027 N Cave Creek Rd,,Phoenix,AZ,85331,,,E,,Private,,,B20,,,,,,,,,200-8,33.784886,-111.972562,4/6/2022,53238,2022-04-06 14:08:04 UTC,LG,,,1/1/2008,,,,,,US,,,,Privé,,private,,,FIRE_STATION,,,,,,,,,,,,,,,,,
BD,City of Phoenix - Fire Station #8,1025 E Polk St,,Phoenix,AZ,85006,,,E,,Private - Government only,,,B20,,,,,,,,,200-9,33.452605,-112.059251,4/6/2022,53239,2022-04-06 14:08:04 UTC,LG,,,1/1/2008,,,,,,US,,,,Privé - Réservé au gouvernement,,private,GOVERNMENT,,FIRE_STATION,,,,,,,,,,,,,,,,,
BD,City of Phoenix - Fire Station #9,330 E Fairmount,,Phoenix,AZ,85012,,,E,,Private,,,B20,,,,,,,,,200-9,33.49325,-112.068342,4/6/2022,53240,2022-04-06 14:08:04 UTC,LG,,,1/1/2008,,,,,,US,,,,Privé,,private,,,FIRE_STATION,,,,,,,,,,,,,,,,,
BD,City of Phoenix - North Gateway Service Center,30205 N Black Canyon Hwy,,Phoenix,AZ,85085,,,E,,Private,,,B20,,,,,,,,,200-8,33.756042,-112.125773,4/6/2022,53242,2022-04-06 14:08:04 UTC,LG,,,1/1/2008,,,,,,US,,,,Privé,,private,,,MUNI_GOV,,,,,,,,,,,,,,,,,
BD,City of Phoenix - SWM Recycle Center,3060 S 27th Ave,,Phoenix,AZ,85009,,,E,,Private,,,B20,,,,,,,,,200-9,33.41654,-112.12122,4/6/2022,53243,2022-04-06 14:08:04 UTC,LG,,,1/1/2008,,,,,,US,,,,Privé,,private,,,MUNI_GOV,,,,,,,,,,,,,,,,,
BD,City of Phoenix - 91st Avenue Waste Water Treatment Plant,5615 S 91st Ave,,Tolleson,AZ,85353,,,E,,Private - Government only,,,B20,,,,,,,,,200-9,33.393581,-112.247634,4/6/2022,53244,2022-04-06 14:08:04 UTC,LG,,,1/1/2008,,,,,,US,,,,Privé - Réservé au gouvernement,,private,GOVERNMENT,,MUNI_GOV,,,,,,,,,,,,,,,,,
BD,DC Department of Public Works - Fleet Management Administration,1835 West Virginia Ave NE,,Washington,DC,20002,,,E,,Private - Government only,,,"B100 and B20 in summer, B5 in winter",,,,,,,,,200-8,38.911108,-76.985066,4/6/2022,53245,2022-04-06 14:08:04 UTC,LG,,,8/15/2001,,,,,,US,,,,Privé - Réservé au gouvernement,,private,GOVERNMENT,,MUNI_GOV,,,,,,,,,,,,,,,,,
BD,DC Department of Public Works - Fort Totten Transfer Station,4902 Bates Rd NE,,Washington,DC,20011,,,E,,Private - Government only,,,"B100 and B20 in summer, B5 in winter",,,,,,,,,200-8,38.945917,-77.004232,4/6/2022,53246,2022-04-06 14:08:04 UTC,LG,,,8/1/2011,,,,,,US,,,,Privé - Réservé au gouvernement,,private,GOVERNMENT,,MUNI_GOV,,,,,,,,,,,,,,,,,
BD,DC Department of Public Works - MPD 2nd District,3320 Idaho Ave NW,,Washington,DC,20016,,,E,,Private - Government only,DC fleet use only,,"B20 in summer, B5 in winter",,,,,,,,,200-9,38.934851,-77.074856,4/6/2022,53247,2022-04-06 14:08:04 UTC,LG,,,8/1/2011,,,,,,US,,,,Privé - Réservé au gouvernement,,private,GOVERNMENT,,MUNI_GOV,,,,,,,,,,,,,,,,,
BD,DC Department of Public Works - MPD 3rd District,1620 V St NW,,Washington,DC,20009,,,E,,Private - Government only,DC fleet use only,,"B20 in summer, B5 in winter",,,,,,,,,200-9,38.917787,-77.037656,4/6/2022,53248,2022-04-06 14:08:04 UTC,LG,,,8/1/2011,,,,,,US,,,,Privé - Réservé au gouvernement,,private,GOVERNMENT,,MUNI_GOV,,,,,,,,,,,,,,,,,
BD,DC Department of Public Works - MPD 6th District,100 42nd St NE,,Washington,DC,20019,,,E,,Private - Government only,DC fleet use only,,"B20 in summer, B5 in winter",,,,,,,,,200-8,38.891929,-76.942599,4/6/2022,53249,2022-04-06 14:08:04 UTC,LG,,,8/1/2011,,,,,,US,,,,Privé - Réservé au gouvernement,,private,GOVERNMENT,,MUNI_GOV,,,,,,,,,,,,,,,,,
BD,HFN Shipman,16-570 Kipimana St,,Keaau,HI,96749,,808-969-1405,E,,Public - Card key at all times,24 hours daily; contact station to arrange for card key; Also accepts HFN proprietary cards,Comdata FuelMan GasCard Proprietor Voyager Wright_Exp,"B99, B20",,,,,,,,,200-9,19.63804,-155.045044,9/10/2021,53250,2022-11-04 20:41:06 UTC,P,,,10/15/2013,,,,,,US,,,,Public - Carte-clé en tout temps,,public,KEY_ALWAYS,,FUEL_RESELLER,,,,,,,,,,,,,,,,,FALSE
BD,Bourne's Energy,1475 Laporte Rd,,Morristown,VT,5661,,802-888-2611,E,,Public - Card key at all times,24 hours daily; contact station to arrange for card key; Also accepts Bourne's Energy card,,"B20 in summer, B5 in winter",,,,,,,,,200-8,44.547411,-72.616259,6/14/2022,53254,2022-06-14 16:22:30 UTC,P,,,1/12/2018,,,,,,US,,,,Public - Carte-clé en tout temps,,public,KEY_ALWAYS,,STANDALONE_STATION,,,,,,,,,,,,,,,,,FALSE
BD,City of Phoenix - State Route 85 Landfill,28361 W Patterson Rd,,Buckeye,AZ,85326,,,E,,Private,,,B20,,,,,,,,,200-8,33.189225,-112.66623,4/6/2022,53256,2022-04-06 14:08:04 UTC,LG,,,1/1/2008,,,,,,US,,,,Privé,,private,,,MUNI_GOV,,,,,,,,,,,,,,,,,
BD,City of Phoenix - Aguilla Golf Course,7858 S 35th Ave,,Laveen Village,AZ,85339,,,E,,Private,,,B20,,,,,,,,,200-9,33.370335,-112.141271,4/6/2022,53257,2022-04-06 14:08:04 UTC,LG,,,1/1/2008,,,,,,US,,,,Privé,,private,,,REC_SPORTS_FACILITY,,,,,,,,,,,,,,,,,
BD,City of Phoenix - Cave Creek Golf Maintenance,2135 W Greenway Rd,,Phoenix,AZ,85023,,,E,,Private,,,B20,,,,,,,,,200-8,33.625467,-112.104087,4/6/2022,53258,2022-04-06 14:08:04 UTC,LG,,,1/1/2008,,,,,,US,,,,Privé,,private,,,REC_SPORTS_FACILITY,,,,,,,,,,,,,,,,,
BD,City of Phoenix - Cave Creek Water Yard,21642 N 20th St,,Phoenix,AZ,85024,,,E,,Private,,,B20,,,,,,,,,200-9,33.678378,-112.04365,4/6/2022,53259,2022-04-06 14:08:04 UTC,LG,,,1/1/2008,,,,,,US,,,,Privé,,private,,,MUNI_GOV,,,,,,,,,,,,,,,,,
BD,City of Phoenix - Encanto Park Yard,1801 W Encanto,,Phoenix,AZ,85007,,,E,,Private,,,B20,,,,,,,,,200-8,33.473206,-112.095653,4/6/2022,53260,2022-04-06 14:08:04 UTC,LG,,,1/1/2008,,,,,,US,,,,Privé,,private,,,PARK,,,,,,,,,,,,,,,,,
BD,City of Phoenix - Fire Station #1,323 N 4th Ave,,Phoenix,AZ,85003,,,E,,Private,,,B20,,,,,,,,,200-9,33.452263,-112.078614,4/6/2022,53261,2022-04-06 14:08:04 UTC,LG,,,1/1/2008,,,,,,US,,,,Privé,,private,,,FIRE_STATION,,,,,,,,,,,,,,,,,
BD,City of Phoenix - Fire Station #10,2731 N 24th Dr,,Phoenix,AZ,85009,,,E,,Private,,,B20,,,,,,,,,200-8,33.479339,-112.111419,4/6/2022,53262,2022-04-06 14:08:04 UTC,LG,,,1/1/2008,,,,,,US,,,,Privé,,private,,,FIRE_STATION,,,,,,,,,,,,,,,,,
BD,City of Phoenix - Fire Station #11,2727 E Roosevelt,,Phoenix,AZ,85008,,,E,,Private,,,B20,,,,,,,,,200-9,33.458145,-112.022735,4/6/2022,53263,2022-04-06 14:08:04 UTC,LG,,,1/1/2008,,,,,,US,,,,Privé,,private,,,FIRE_STATION,,,,,,,,,,,,,,,,,
BD,City of Phoenix - Fire Station #12,4243 N 32nd St,,Phoenix,AZ,85018,,,E,,Private,,,B20,,,,,,,,,200-8,33.498466,-112.012995,4/6/2022,53264,2022-04-06 14:08:04 UTC,LG,,,1/1/2008,,,,,,US,,,,Privé,,private,,,FIRE_STATION,,,,,,,,,,,,,,,,,
BD,City of Phoenix - Fire Station #13,2838 N 47th Pl,,Phoenix,AZ,85008,,,E,,Private,,,B20,,,,,,,,,200-9,33.479493,-111.978751,4/6/2022,53265,2022-04-06 14:08:04 UTC,LG,,,1/1/2008,,,,,,US,,,,Privé,,private,,,FIRE_STATION,,,,,,,,,,,,,,,,,
BD,City of Phoenix - Fire Station #14,1330 N 32nd Ave,,Phoenix,AZ,85009,,,E,,Private - Government only,,,B20,,,,,,,,,200-9,33.463957,-112.127562,4/6/2022,53266,2022-04-06 14:08:04 UTC,LG,,,1/1/2008,,,,,,US,,,,Privé - Réservé au gouvernement,,private,GOVERNMENT,,FIRE_STATION,,,,,,,,,,,,,,,,,
BD,City of Phoenix - Fire Station #15,4730 N 43rd Ave,,Phoenix,AZ,85031,,,E,,Private,,,B20,,,,,,,,,200-9,33.506337,-112.151947,4/6/2022,53267,2022-04-06 14:08:04 UTC,LG,,,1/1/2008,,,,,,US,,,,Privé,,private,,,FIRE_STATION,,,,,,,,,,,,,,,,,
BD,City of Phoenix - Fire Station #16,1414 E Mohave,,Phoenix,AZ,85034,,,E,,Private - Government only,,,B20,,,,,,,,,200-9,33.431642,-112.051593,4/6/2022,53268,2022-04-06 14:08:04 UTC,LG,,,1/1/2008,,,,,,US,,,,Privé - Réservé au gouvernement,,private,GOVERNMENT,,FIRE_STATION,,,,,,,,,,,,,,,,,
BD,City of Phoenix - Fire Station #17,1531 E Missouri,,Phoenix,AZ,85014,,,E,,Private - Government only,,,B20,,,,,,,,,200-9,33.516159,-112.048338,4/6/2022,53269,2022-04-06 14:08:04 UTC,LG,,,1/1/2008,,,,,,US,,,,Privé - Réservé au gouvernement,,private,GOVERNMENT,,FIRE_STATION,,,,,,,,,,,,,,,,,
BD,City of Phoenix - Fire Station #18,5019 N 23rd Ave,,Phoenix,AZ,85015,,,E,,Private,,,B20,,,,,,,,,200-9,33.51043,-112.10784,4/6/2022,53270,2022-04-06 14:08:04 UTC,LG,,,1/1/2008,,,,,,US,,,,Privé,,private,,,FIRE_STATION,,,,,,,,,,,,,,,,,
BD,City of Phoenix - Fire Station #20,726 W Glendale,,Phoenix,AZ,85021,,,E,,Private,,,B20,,,,,,,,,200-9,33.538818,-112.083446,4/6/2022,53271,2022-04-06 14:08:04 UTC,LG,,,1/1/2008,,,,,,US,,,,Privé,,private,,,FIRE_STATION,,,,,,,,,,,,,,,,,
BD,City of Phoenix - Fire Station #21,1212 S 27th Ave,,Phoenix,AZ,85009,,,E,,Private - Government only,,,B20,,,,,,,,,200-9,33.436215,-112.117672,4/6/2022,53272,2022-04-06 14:08:04 UTC,LG,,,1/1/2008,,,,,,US,,,,Privé - Réservé au gouvernement,,private,GOVERNMENT,,FIRE_STATION,,,,,,,,,,,,,,,,,
BD,City of Phoenix - Fire Station #22,230 E Roeser Rd,,Phoenix,AZ,85040,,,E,,Private,,,B20,,,,,,,,,200-8,33.399569,-112.070603,4/6/2022,53273,2022-04-06 14:08:04 UTC,LG,,,1/1/2008,,,,,,US,,,,Privé,,private,,,FIRE_STATION,,,,,,,,,,,,,,,,,
BD,City of Phoenix - Fire Station #23,4416 S 32nd St,,Phoenix,AZ,85040,,,E,,Private,,,B20,,,,,,,,,200-9,33.405913,-112.013164,4/6/2022,53274,2022-04-06 14:08:04 UTC,LG,,,1/1/2008,,,,,,US,,,,Privé,,private,,,FIRE_STATION,,,,,,,,,,,,,,,,,
BD,City of Phoenix - Fire Station #24,2602 N 43rd Ave,,Phoenix,AZ,85009,,,E,,Private,,,B20,,,,,,,,,200-9,33.477084,-112.152082,4/6/2022,53275,2022-04-06 14:08:04 UTC,LG,,,1/1/2008,,,,,,US,,,,Privé,,private,,,FIRE_STATION,,,,,,,,,,,,,,,,,
BD,City of Phoenix - Fire Station #25,4010 N 63rd Ave,,Phoenix,AZ,85033,,,E,,Private,,,B20,,,,,,,,,200-9,33.493478,-112.195673,4/6/2022,53276,2022-04-06 14:08:04 UTC,LG,,,1/1/2008,,,,,,US,,,,Privé,,private,,,FIRE_STATION,,,,,,,,,,,,,,,,,
BD,City of Phoenix - Fire Station #26,3301 W Rose Ln,,Phoenix,AZ,85017,,,E,,Private,,,B20,,,,,,,,,200-9,33.527174,-112.130361,4/6/2022,53277,2022-04-06 14:08:04 UTC,LG,,,1/1/2008,,,,,,US,,,,Privé,,private,,,FIRE_STATION,,,,,,,,,,,,,,,,,
BD,City of Phoenix - Fire Station #27,12449 N 32nd St,,Phoenix,AZ,85032,,,E,,Private - Government only,,,B20,,,,,,,,,200-9,33.600435,-112.0128,4/6/2022,53278,2022-04-06 14:08:04 UTC,LG,,,1/1/2008,,,,,,US,,,,Privé - Réservé au gouvernement,,private,GOVERNMENT,,FIRE_STATION,,,,,,,,,,,,,,,,,
BD,City of Phoenix - Fire Station #28,7409 S 16th St,,Phoenix,AZ,85042,,,E,,Private,,,B20,,,,,,,,,200-9,33.379277,-112.046849,4/6/2022,53279,2022-04-06 14:08:04 UTC,LG,,,1/1/2008,,,,,,US,,,,Privé,,private,,,FIRE_STATION,,,,,,,,,,,,,,,,,
BD,City of Phoenix - Fire Station #29,3949 E Air Lane Way,,Phoenix,AZ,85034,,,E,,Private,,,B20,,,,,,,,,200-8,33.443127,-111.996573,4/6/2022,53280,2022-04-06 14:08:04 UTC,LG,,,1/1/2008,,,,,,US,,,,Privé,,private,,,FIRE_STATION,,,,,,,,,,,,,,,,,
BD,City of Phoenix - Fire Station #3,1257 W Pierce,,Phoenix,AZ,85007,,,E,,Private - Government only,,,B20,,,,,,,,,200-9,33.455728,-112.090923,4/6/2022,53281,2022-04-06 14:08:04 UTC,LG,,,1/1/2008,,,,,,US,,,,Privé - Réservé au gouvernement,,private,GOVERNMENT,,FIRE_STATION,,,,,,,,,,,,,,,,,
BD,City of Phoenix - Fire Station #30,2701 W Belmont,,Phoenix,AZ,85051,,,E,,Private,,,B20,,,,,,,,,200-9,33.548963,-112.117593,4/6/2022,53282,2022-04-06 14:08:04 UTC,LG,,,1/1/2008,,,,,,US,,,,Privé,,private,,,FIRE_STATION,,,,,,,,,,,,,,,,,
BD,City of Phoenix - Fire Station #31,5730 E Thunderbird,,Phoenix,AZ,85254,,,E,,Private,,,B20,,,,,,,,,200-9,33.611891,-111.95749,4/6/2022,53283,2022-04-06 14:08:04 UTC,LG,,,1/1/2008,,,,,,US,,,,Privé,,private,,,FIRE_STATION,,,,,,,,,,,,,,,,,
BD,City of Phoenix - Fire Station #32,7620 S 42nd Pl,,Phoenix,AZ,85042,,,E,,Private,,,B20,,,,,,,,,200-9,33.377242,-111.992719,4/6/2022,53284,2022-04-06 14:08:04 UTC,LG,,,1/1/2008,,,,,,US,,,,Privé,,private,,,FIRE_STATION,,,,,,,,,,,,,,,,,
BD,City of Phoenix - Fire Station #33,2409 W Cactus,,Phoenix,AZ,85029,,,E,,Private,,,B20,,,,,,,,,200-8,33.59642,-112.11036,4/6/2022,53285,2022-04-06 14:08:04 UTC,LG,,,1/1/2008,,,,,,US,,,,Privé,,private,,,FIRE_STATION,,,,,,,,,,,,,,,,,
BD,City of Phoenix - Fire Station #35,646 E Paradise Ln,,Phoenix,AZ,85022,,,E,,Private,,,B20,,,,,,,,,200-9,33.633315,-112.065927,4/6/2022,53286,2022-04-06 14:08:04 UTC,LG,,,1/1/2008,,,,,,US,,,,Privé,,private,,,FIRE_STATION,,,,,,,,,,,,,,,,,
BD,City of Phoenix - Fire Station #36,21602 N 9th Ave,,Phoenix,AZ,85027,,,E,,Private,,,B20,,,,,,,,,200-9,33.681971,-112.08565,4/6/2022,53287,2022-04-06 14:08:04 UTC,LG,,,1/1/2008,,,,,,US,,,,Privé,,private,,,FIRE_STATION,,,,,,,,,,,,,,,,,
BD,City of Phoenix - Fire Station #37,16602 N 40th St,,Phoenix,AZ,85032,,,E,,Private,,,B20,,,,,,,,,200-8,33.637082,-111.996122,4/6/2022,53288,2022-04-06 14:08:04 UTC,LG,,,1/1/2008,,,,,,US,,,,Privé,,private,,,FIRE_STATION,,,,,,,,,,,,,,,,,
BD,City of Phoenix - Fire Station #39,2276 W Southern,,Phoenix,AZ,85041,,,E,,Private,,,B20,,,,,,,,,200-9,33.392616,-112.107555,4/6/2022,53290,2022-04-06 14:08:04 UTC,LG,,,1/1/2008,,,,,,US,,,,Privé,,private,,,FIRE_STATION,,,,,,,,,,,,,,,,,
BD,City of Phoenix - Fire Station #4,1601 N 3rd Ave,,Phoenix,AZ,85003,,,E,,Private,,,B20,,,,,,,,,200-9,33.466092,-112.078021,4/6/2022,53291,2022-04-06 14:08:04 UTC,LG,,,1/1/2008,,,,,,US,,,,Privé,,private,,,FIRE_STATION,,,,,,,,,,,,,,,,,
BD,City of Phoenix - Fire Station #40,3838 N 83rd Ave,,Phoenix,AZ,85033,,,E,,Private,,,B20,,,,,,,,,200-9,33.491419,-112.238184,4/6/2022,53292,2022-04-06 14:08:04 UTC,LG,,,1/1/2008,,,,,,US,,,,Privé,,private,,,FIRE_STATION,,,,,,,,,,,,,,,,,
BD,City of Phoenix - Fire Station #41,2501 W Morningside Dr,,Phoenix,AZ,85023,,,E,,Private,,,B20,,,,,,,,,200-9,33.648365,-112.113154,4/6/2022,53293,2022-04-06 14:08:04 UTC,LG,,,1/1/2008,,,,,,US,,,,Privé,,private,,,FIRE_STATION,,,,,,,,,,,,,,,,,
BD,City of Phoenix - Fire Station #42,3246 W Greenway,,Phoenix,AZ,85053,,,E,,Private,,,B20,,,,,,,,,200-9,33.625647,-112.129241,4/6/2022,53294,2022-04-06 14:08:04 UTC,LG,,,1/1/2008,,,,,,US,,,,Privé,,private,,,FIRE_STATION,,,,,,,,,,,,,,,,,
BD,City of Phoenix - Fire Station #43,4110 E Chandler Blvd,,Phoenix,AZ,85048,,,E,,Private,,,B20,,,,,,,,,200-9,33.305662,-111.994526,4/6/2022,53295,2022-04-06 14:08:04 UTC,LG,,,1/1/2008,,,,,,US,,,,Privé,,private,,,FIRE_STATION,,,,,,,,,,,,,,,,,
BD,City of Phoenix - Fire Station #44,7117 W McDowell Rd,,Phoenix,AZ,85035,,,E,,Private,,,B20,,,,,,,,,200-9,33.465311,-112.212415,4/6/2022,53296,2022-04-06 14:08:04 UTC,LG,,,1/1/2008,,,,,,US,,,,Privé,,private,,,FIRE_STATION,,,,,,,,,,,,,,,,,
BD,City of Phoenix - Fire Station #45,20026 N 26th St,,Phoenix,AZ,85024,,,E,,Private,,,B20,,,,,,,,,200-8,33.668657,-112.026594,4/6/2022,53297,2022-04-06 14:08:04 UTC,LG,,,1/1/2008,,,,,,US,,,,Privé,,private,,,FIRE_STATION,,,,,,,,,,,,,,,,,
BD,City of Phoenix - Fire Station #46,15402 S Marketplace NE,,Phoenix,AZ,85048,,,E,,Private - Government only,,,B20,,,,,,,,,200-9,33.306798,-112.052176,4/6/2022,53298,2022-04-06 14:08:04 UTC,LG,,,1/1/2008,,,,,,US,,,,Privé - Réservé au gouvernement,,private,GOVERNMENT,,FIRE_STATION,,,,,,,,,,,,,,,,,
BD,City of Phoenix - Fire Station #48,5230 W Happy Valley Rd,,Phoenix,AZ,85310,,,E,,Private,,,B20,,,,,,,,,200-8,33.712489,-112.173388,4/6/2022,53299,2022-04-06 14:08:04 UTC,LG,,,1/1/2008,,,,,,US,,,,Privé,,private,,,FIRE_STATION,,,,,,,,,,,,,,,,,
BD,City of Phoenix - Fire Station #49,3750 E Dynamite Blvd,,Phoenix,AZ,85085,,,E,,Private,,,B20,,,,,,,,,GPS,33.7414619,-111.9960013,4/6/2022,53300,2022-04-06 14:08:04 UTC,LG,,,1/1/2008,,,,,,US,,,,Privé,,private,,,FIRE_STATION,,,,,,,,,,,,,,,,,
BD,City of Phoenix - Fire Station #5,1840 E Cambridge,,Phoenix,AZ,85006,,,E,,Private,,,B20,,,,,,,,,200-9,33.477835,-112.04171,4/6/2022,53301,2022-04-06 14:08:04 UTC,LG,,,1/1/2008,,,,,,US,,,,Privé,,private,,,FIRE_STATION,,,,,,,,,,,,,,,,,
BD,City of Phoenix - Fire Station #50,20225 N 35th Ave,,Phoenix,AZ,85027,,,E,,Private,,,B20,,,,,,,,,200-9,33.670526,-112.134043,4/6/2022,53302,2022-04-06 14:08:04 UTC,LG,,,1/1/2008,,,,,,US,,,,Privé,,private,,,FIRE_STATION,,,,,,,,,,,,,,,,,
BD,City of Phoenix - Fire Station #52,21650 N Tatum Blvd,,Phoenix,AZ,85050,,,E,,Private,,,B20,,,,,,,,,200-9,33.68303,-111.976944,4/6/2022,53303,2022-04-06 14:08:04 UTC,LG,,,1/1/2008,,,,,,US,,,,Privé,,private,,,FIRE_STATION,,,,,,,,,,,,,,,,,
BD,City of Phoenix - Fire Station #54,9820 W Campbell Ave,,Phoenix,AZ,85037,,,E,,Private,,,B20,,,,,,,,,200-9,33.501717,-112.270698,4/6/2022,53304,2022-04-06 14:08:04 UTC,LG,,,1/1/2008,,,,,,US,,,,Privé,,private,,,FIRE_STATION,,,,,,,,,,,,,,,,,
BD,City of Phoenix - Fire Station #56,3210 W Canotia Pl,,Phoenix,AZ,85086,,,E,,Private,,,B20,,,,,,,,,200-9,33.801064,-112.128899,4/6/2022,53305,2022-04-06 14:08:04 UTC,LG,,,1/1/2008,,,,,,US,,,,Privé,,private,,,FIRE_STATION,,,,,,,,,,,,,,,,,
BD,City of Phoenix - Fire Station #57,1660 W Dobbins Ave,,Phoenix,AZ,85041,,,E,,Private,,,B20,,,,,,,,,200-9,33.365159,-112.094025,4/6/2022,53306,2022-04-06 14:08:04 UTC,LG,,,1/1/2008,,,,,,US,,,,Privé,,private,,,FIRE_STATION,,,,,,,,,,,,,,,,,
BD,City of Phoenix - Fire Station #59,1111 S 65th Ave,,Phoenix,AZ,85043,,,E,,Private - Government only,,,B20,,,,,,,,,200-9,33.437756,-112.197485,4/6/2022,53307,2022-04-06 14:08:04 UTC,LG,,,1/1/2008,,,,,,US,,,,Privé - Réservé au gouvernement,,private,GOVERNMENT,,FIRE_STATION,,,,,,,,,,,,,,,,,
BD,City of Phoenix - Fire Station #6,368 W Apache,,Phoenix,AZ,85003,,,E,,Private,,,B20,,,,,,,,,200-9,33.430399,-112.08027,4/6/2022,53308,2022-04-06 14:08:04 UTC,LG,,,1/1/2008,,,,,,US,,,,Privé,,private,,,FIRE_STATION,,,,,,,,,,,,,,,,,
BD,City of Phoenix - Fire Station #60,2405 W Townley,,Phoenix,AZ,85021,,,E,,Private,,,B20,,,,,,,,,200-9,33.56515,-112.110738,4/6/2022,53309,2022-04-06 14:08:04 UTC,LG,,,1/1/2008,,,,,,US,,,,Privé,,private,,,FIRE_STATION,,,,,,,,,,,,,,,,,
BD,City of Phoenix - Fire Station #61,1925 E Indian School Rd,,Phoenix,AZ,85016,,,E,,Private,,,B20,,,,,,,,,200-9,33.494233,-112.040066,4/6/2022,53310,2022-04-06 14:08:04 UTC,LG,,,1/1/2008,,,,,,US,,,,Privé,,private,,,FIRE_STATION,,,,,,,,,,,,,,,,,
BD,Saint Avenue BP,302 E School Ave,,Olds,IA,52647,,319-694-2200,E,,Public,5am-10pm daily,A Cash Checks D M V Voyager Wright_Exp,B20 in summer,,,,,,,,,GPS,41.134114,-91.541158,7/12/2022,61125,2022-07-12 20:31:42 UTC,P,,,8/1/2013,,,,,,US,,,,Public,,public,,,CONVENIENCE_STORE,,,,,,,,,,,,,,,,,FALSE
